contentsid,title,address,lat,lng,tag,alltag,introduction
CNTS_000000000022244,쇠소깍섬도리왓펜션,서귀포시 하효동 951-1,33.25704,126.62153,"숙소,휴양펜션,펜션,바비큐,체험,공공와이파이존","숙소,휴양펜션,펜션,바비큐,체험,공공와이파이존,공용주차장,화장실,무료 WIFI","서귀포 하효마을, 쇠소깍에서 도보로 3분 거리에 있는 펜션"
CNTS_200000000015028,블리핸드메이드,제주특별자치도 제주시 조천읍 신촌리 1374-8,33.5195621,126.6191842,"조천, 신촌리, 소품샵, 원데이클래스, 구체관절인형옷, 재봉틀","조천, 신촌리, 소품샵, 원데이클래스, 구체관절인형옷, 재봉틀",다양한 종류의 구체관절인형이 반기는 소품샵
CNTS_300000000013549,"제주민속촌 수국축제 - 수국 한송이, 기억 한 조각 로망을 대여해드립니다",제주특별자치도 서귀포시 표선면 표선리 40-1,33.3225098,126.8418176,"제주여행, 6월제주축제, 한복체험, 수국축제, 민속체험, 스탬프투어, 민속촌","제주여행, 6월제주축제, 한복체험, 수국축제, 민속체험, 스탬프투어, 민속촌",수국과 전통이 어우러진 제주민속촌에서 여름의 감성과 체험을 즐기는 감성 축제
CNTS_300000000013647,제주민속촌 놀멍쉬멍상대회,제주특별자치도 서귀포시 표선면 표선리 40-1,33.3225098,126.8418176,"제주여행, 8월축제, 명상대회, 전통체험, 서귀포여행","제주여행, 8월축제, 명상대회, 전통체험, 서귀포여행", ‘놀멍쉬멍..상’ 다례와 명상이 만나는 고요한 시간의 초대
CNTS_200000000011914,제주의 마을에서 즐기는 힐링투어 <제주로 로캉스 떠나요 2021>,,,,"로캉스,마을여행,로컬,바캉스,머체왓,의귀리,동백마을,하효동,신흥2리","로캉스,마을여행,로컬,바캉스,머체왓,의귀리,동백마을,하효동,신흥2리","제주관광공사는 지금까지 알려지지 않은 제주의 숨겨진 매력을 찾을 수 있는 마을여행 프로그램인 '제주로 로캉스 떠나요'를 운영한다. '로캉스'는 지역을 뜻하는 로컬(Local)과 여행/휴가를 뜻하는 바캉스(Vacance)가 합쳐진 단어로, 지역주민과 함께 다양한 활동과 체험을 통해 농촌마을만의 특별한 매력을 느낄 수 있는 프로그램으로 구성되어있다. 이번에 소개된 머체왓, 의귀리, 동백마을, 하효마을 등 매력넘치고 개성있는 제주마을의 콘텐츠를 통해 코로나19로 지친 일상에서 벗어나, 힐링과 치유, 안식을 느껴보는 시간을 가져보자!"
CNTS_300000000013762,제 8회 하하페스티벌,제주특별자치도 제주시 일도일동 1211,33.5141402,126.5277922,"하하패스티벌, 일도이동, 산지천, 일도일동, 지역상생축제","하하패스티벌, 일도이동, 산지천, 일도일동, 지역상생축제",다양한 문화공연 및 체험부스 운영 등을 통해 침체된 원도심에 활력을 불어넣고 골목 상권 활성화 및 주민 화합의 장 마련
CNTS_200000000013424,제14회 서귀포봄맞이축제,제주특별자치도 서귀포시 서귀동 512-1,33.2455319,126.564526,"축제,행사,봄꽃,마을산책,문화관광,체험,봄","축제,행사,봄꽃,마을산책,문화관광,체험,봄",가장 일찍 봄이 시작되는 서귀포에서 지역 전통문화에 기반한 제 14회 서귀포봄맞이축제가 개최될 예정입니다. 
CNTS_000000000018981,제주도통나무펜션,제주특별자치도 서귀포시 남원읍 남원리 2355-8,33.2762767,126.7055972,"펜션,숙소,휴양펜션,통나무집민박,자연학습장,바비큐,체험,낚시,독채,가족","펜션,숙소,휴양펜션,통나무집민박,자연학습장,바비큐,체험,낚시,독채,가족,공용주차장,현금결제,카드결제,화장실,무료 WIFI,흡연구역,편의점,음료대,유도 및 안내시설,경보 및 피난시설,아주 어려움",남원 영화박물관과 해안경승지 맞은편에 위치한 펜션
CNTS_000000000022545,알랑가게스트하우스,제주특별자치도 서귀포시 안덕면 사계리 2078,33.2288607,126.3065651,"게스트하우스,숙소,체험,자연경관,힐링쉼터,힐링",게스트하우스,관광지와 가깝고 조망이 좋은 게스트하우스
CNTS_300000000013628,제5회 웰니스 숲힐링 축제 - 한 개의 별을 노래하자,제주특별자치도 서귀포시 호근동 산 1,33.3025489,126.5245747,"체험, 웰니스, 청년, 1박2일, 힐링, 서귀포치유의숲","체험, 웰니스, 청년, 1박2일, 힐링, 서귀포치유의숲","별빛 아래, 나를 만나는 밤 청년들을 위한 단 하루의 특별한 쉼, 서귀포치유의숲에서의 여름밤 1박 2일 힐링 프로그램"
CNTS_300000000013530,제 26회 제주과학축전,제주특별자치도 제주시 오라일동 1006,33.4949908,126.5177961,"제주과학축제, 제주과학문화협회, 과학체험, 과학탐구, 가족과학, 제주 행사","제주과학축제, 제주과학문화협회, 과학체험, 과학탐구, 가족과학, 제주 행사",다양한 과학·기술 관련 과학체험프로그램 110개와 과학경연 3종목을 운영하여 관람객들이 참여를 통해 함께 즐기는 과학문화축제
CNTS_300000000013047,친환경 라이프 스타일 여행-제주에서 찾는 무해한 즐거움,,,,"친환경, 친환경라이프, 비건, 환경, 친환경체험, 비건맛집, 채식, 비건베이커리, 비건레트로","친환경, 친환경라이프, 비건, 환경, 친환경체험, 비건맛집, 채식, 비건베이커리, 비건레트로","비건 식당과 비건 베이커리 등 관련 맛집들이 늘어나고, 비건 레토르트(Retort food) 식품 또한 간편함과 맛을 앞세워 인기를 끌고 있다. 과거보다 맛과 품질이 크게 향상된 제품이 등장하며 채식주의자뿐만 아니라 일반 소비자들 사이에서도 관심이 높아지고 있다."
CNTS_300000000013770,제14회 그린 로하스 엑스포 및 ESG 환경 포럼,제주특별자치도 제주시 노형동 1534 제주한라컨벤션센터 1층 컨벤션홀,33.4783294,126.4743375,"제주, 친환경, 녹색산업, 환경포럼, 제주친환경","제주, 친환경, 녹색산업, 환경포럼, 제주친환경,,","제14회 그린 로하스 엑스포는 ESG와 친환경, 녹색산업을 주제로 친환경 기술·제품 전시와 체험, 환경 포럼을 통해 지속가능한 미래를 함께 고민하는 축제입니다."
CNTS_300000000012808,세계가 인정한 제주 마을여행 통합브랜드 <카름스테이>,,,,"카름스테이, 제주마을관광, 최우수마을선정, 신흥2리동백마을, 세화해녀체험","카름스테이, 제주마을관광, 최우수마을선정, 신흥2리동백마을, 세화해녀체험","마을여행 통합브랜드 ‘카름스테이’가 지난 5일 인도 뉴델리에서 아시아 태평양관광협회에서 주관하는 파타 골드 어워즈 2023(PATA Gold Awards 2023) 지역 기반 관광 부문 골드 어워즈를 수상했다. 사회적 책임 분야의 지역관광 부문에서 올해 대표사업으로 선정된 카름스테이는 지역 사회기반의 관광모델, 민관협력 속 주민주도 운영 체계, 관광을 통한 주민 소득 창출 등 지속 가능한 관광 관점에서 높은 평가를 받았다.
"
CNTS_200000000007537,유네스코가 주목하는 생물권 보전지역 <하례리에서 즐기는 제주여행>,,,,"친구,커플,맑음,경관/포토,체험관광,내창트레킹,오름,바릇잡이,감귤상웨빵,포토스팟","친구,커플,맑음,경관/포토,체험관광,내창트레킹,오름,바릇잡이,감귤상웨빵","제주에는 유네스코가 인정하는 생물권 보전지역인 서귀포시 남원읍 하례리가 있다. 이곳은 2014년 4월 제주특별자치도 생태관광마을로 지정되었고, 같은 해 12월 환경부 생태관광지로 선정되기도 했다. 소중한 자연유산을 가지고 있는 하례리에는 특별하게도 지역 주민들이 직접 인솔하여 마을의 이야기를 들려주고 체험하는 프로그램이 준비되어 있다. 내창트레킹, 고살리숲길 탐방, 감귤상웨빵 체험, 걸서악오름, 바릇잡이 등 하례리 마을의 매력에 함께 빠져보자."
CNTS_200000000014126,제주다움을 발견하는 여행 - 럭셔리 트래블 인 제주(익스피리언스편),,,,"체험,럭셔리트래블인제주","체험,럭셔리트래블인제주","럭셔리트래블 인 제주는 코로나19로 인한 글로벌 관광환경의 변화와 달라진 소비자 트렌드에 맞추어 뉴노멀 시대에 적합한 관광 콘텐츠를 제공하고, 고부가 관광을 활성화하기 위한 기반을 조성하고자 기획되었다. 여기서 럭셔리의 의미는 기존의 고급스럽고 호화로운 이미지가 아닌, 제주의 고유성을 바탕으로 발견하고 경험할 수 있는 '유니크함과 영감'을 의미한다. 이러한 유니크함과 영감을 제공할 제주의 음식(고메), 숙소(스테이), 체험(익스피리언스), 지역장인(스페셜티)을 소개한다."
CNTS_200000000011474,[서귀포 건축문화기행] 3코스. 한 잔의 운치를 걸어보자,,,,"휴식/힐링,마을관광,문화관광,건축문화기행,역사유적",휴식/힐링,"서광다원에 가면 차를 관람하고, 차를 체험하고, 차를 즐기는 여러가지 방법이 있다. 단지 차 한잔이 아니라 풍경과 공간 속에 보내는 시간이 스리슬쩍 차와의 좋은 기억을 만든다. 이곳에 있는 4개의 건축물은 여행자를 차의 세계로 이끄는 숨은 조력자이다. "
CNTS_300000000013832,유아 문화예술교육 페스타 ⭐펠롱 펠롱 작은 별⭐,제주특별자치도 서귀포시 중문동 2162 서귀포시 천제연로 164,33.2520485,126.4221724,#문화예술교육 #펠롱펠롱작은별 #아이와함께 #체험형축제,"#문화예술교육 #펠롱펠롱작은별 #아이와함께 #체험형축제,,,단독접근가능,단차없음,장애인 화장실,승강기,쉬움",유아 문화예술교육 페스타 ⭐펠롱 펠롱 작은 별⭐ 프로그램 신청 안내
CNTS_300000000013178,제17회 범도민 안전체험 한마당,제주특별자치도 제주시 도남동 582,33.4916972,126.5229425,"안전, 체험, 소방차, 헬기, 어린이","안전, 체험, 소방차, 헬기, 어린이",다양한 체험을 통해 누구나 쉽게 안전을 배우고 즐길 수 있는 도내 최대의 오감만족 안전축제!
CNTS_200000000009134,신등대민박,제주특별자치도 제주시 추자면 대서리 5-7,33.9632897,126.2976894,"낚시출조,선상관광,갯바당체험,추자도,숙소,민박,농어촌민박,식당","낚시출조,선상관광,갯바당체험,추자도,화장실,무료 WIFI,편의점,카드결제,현금결제,없음,동반불가능,유료제공,전체금연,없음,운행안함",추자항 바로앞 넓은 바다뷰가 펼쳐진 곳
CNTS_200000000015508,제주아세안홀,제주특별자치도 서귀포시 중문동 2571,33.2446048,126.421732,"전시와 행사,제주아세안홀,문화공간","전시와 행사,제주아세안홀,문화공간","한국과 아세안에 대한 이해 증진을 위한 강좌, 워크숍, 체험학습 등 다양한 행사가 진행되는 다목적 공간"
CNTS_300000000012984,2025 제주안전체험관 가정의 달 맞이 행사,제주특별자치도 제주시 애월읍 어음리 41-4,33.3942008,126.3737312,"제주, 제주안전체험관, 어린이날, 안전체험, 가정의달","제주, 제주안전체험관, 어린이날, 안전체험, 가정의달","소방관과 함께하는 안전문화 행사! 어린이날, 안전체험관에서는 우리가 안전히어로!"
CONT_000000000500949,스쿠버스토리,제주특별자치도 서귀포시 동홍동 192-39,33.2663197,126.5671727,"게스트하우스,민박,스쿠버다이빙,단체여행객,주차장,공공와이파이존,교통","게스트하우스,민박,스쿠버다이빙,단체여행객,주차장,공공와이파이존,교통,현금결제,카드결제,화장실,무료 WIFI,편의점,음료대,경보 및 피난시설,아주 어려움","스쿠버다이빙 체험 프로그램을 운영하는 게스트하우스이다.
다이빙 자격증 취득 가능하다."
CNTS_000000000019076,해변의집,제주특별자치도 제주시 도두일동 1725,33.508289,126.470821,"휴식,숙소,펜션,휴양펜션,주차장,해안도로,해수욕장,체험,바비큐,찜질방","휴식,숙소,펜션,휴양펜션,주차장,해안도로,해수욕장,체험,바비큐,찜질방,공용주차장,현금결제,카드결제,화장실,무료 WIFI,흡연구역,편의점,음료대,유도 및 안내시설,경보 및 피난시설,아주 어려움",용두암과 이호해수욕장사이 해안도로변에 위치한 해변의집 펜션은 주변에 제주해수피아가 있으며 유명먹거리식당도 많이 있습니다.
CONT_000000000500849,라이온힐펜션,제주특별자치도 서귀포시 안덕면 덕수리 236,33.2813513,126.3191078,"팬션,펜션,휴양펜션,독채,단체여행객,바비큐,온돌방,가족,조식 포함,체험,공공와이파이존,계곡,해수욕장,수영장,수상레저","팬션,펜션,휴양펜션,독채,단체여행객,바비큐,온돌방,가족,조식 포함,체험,공공와이파이존,계곡,해수욕장,수영장,수상레저,공용주차장,현금결제,카드결제,화장실,흡연구역,음료대,유도 및 안내시설,아주 어려움,없음",산방산과 송악해변이 아름답게 펼쳐지는 곳
CNTS_300000000013012,2025 제주예술문화축전,제주시 연동 301-15,33.5063429,126.5315162,"다양한체험부스, 어린이사생대회, 제주예술문화축전, 제주예총, 온가족이함께즐겨요","다양한체험부스, 어린이사생대회, 제주예술문화축전, 제주예총, 온가족이함께즐겨요",예술愛 색을 입히다!
CNTS_300000000013807,제주민속촌 추석멩질놀당갑써,제주특별자치도 서귀포시 표선면 표선리 40-1,33.3225098,126.8418176,"제주여행 , 10월축제, 추석이벤트, 전통체험, 서귀포여행, 표선행사, 서귀포축제, 윷놀이대회","제주여행 , 10월축제, 추석이벤트, 전통체험, 서귀포여행, 표선행사, 서귀포축제, 윷놀이대회","윷놀이대회, 랜덤플레이댄스, 어린이 한복대회, 패션쇼, 민속예술 전통공연, 민속놀이 체험 등 다양한 민속문화예술 행사입니다"
CONT_000000000501017,이야기별방,제주특별자치도 제주시 구좌읍 종달리 1407,33.4643125,126.8365625,"펜션,휴양펜션,해수욕장,해변,교통,공공와이파이존,단체여행객,가족,바비큐,해안도로,체험,자연경관,주차장,카페,물품보관서비스","펜션,휴양펜션,해수욕장,해변,교통,공공와이파이존,단체여행객,가족,바비큐,해안도로,체험,자연경관,주차장,카페,물품보관서비스,공용주차장,현금결제,카드결제,화장실,무료 WIFI,음료대,유도 및 안내시설","제주도 펜션, 올레 21코스 중간지점이자 하도해수욕장이 바로 보이는 오션뷰를 자랑하는 이야기 별방"
CNTS_300000000013951,내노키카페,제주특별자치도 서귀포시 남원읍 남원리 27,33.2833278,126.7233943,"카페, 수제푸딩, 귤따기체험, 귤밭, 디저트","카페, 수제푸딩, 귤따기체험, 귤밭, 디저트,현금결제,카드결제,무료 WIFI,화장실,카드결제,현금결제,가능",귤밭을 품은 푸딩 전문 디저트 카페 
CNTS_300000000013969,알프스제주,제주특별자치도 서귀포시 표선면 성읍리 475,33.3982708,126.8021819,"승마, 들판, 힐링, 카페, 복합공간","승마, 들판, 힐링, 카페, 복합공간,현금결제,카드결제,무료 WIFI,화장실,현금결제,카드결제,장애인 전용 주차장,어린이 출입가능",아름다운 경치와 함께하는 승마 체험&커피
CNTS_300000000012712,댕댕스위트,제주특별자치도 제주시 애월읍 하귀1리 117-1,33.4865061,126.4145086,"애견간식,반려동물,반려동물동반입장,혼저옵서개,반려동물동반_기타체험","애견간식,반려동물,반려동물동반입장,혼저옵서개,반려동물동반_기타체험,공용주차장,화장실,무료 WIFI","반려동물의 건강하고 활기찬 하루를 위해 수제간식을 제공하는 이곳은 무방부제, 무첨가믈, 무색소에 건강한 재료만을 갖고 직접 만든 수제간식을 판매하는 곳이다."
CONT_000000000500809,나무이야기,제주특별자치도 서귀포시 남원읍 남원리 153-3,33.2808477,126.7166153,"게스트하우스,숙소,민박,오름투어,낚시,체험,온돌방,바비큐,공공와이파이존,해변,편백나무펜션,독채,방갈로숙박촌,농어촌민박","게스트하우스,공용주차장,현금결제,카드결제,화장실,무료 WIFI,흡연구역,편의점,음료대,유도 및 안내시설,경보 및 피난시설,어려움",올래5코스 시작점에 위치한 편백나무와 삼나무 등 나무로 내부 인테리어가 된 곳
CNTS_300000000013878,대한목장,제주특별자치도 서귀포시 남원읍 신례리 1918-1,33.3330338,126.6180657,"서귀포, 목장, 체험, 제주스냅장소, 서귀포카페, 카페","서귀포, 목장, 체험, 제주스냅장소, 서귀포카페, 카페,현금결제,카드결제,화장실,카드결제,현금결제","70년간 숨겨져 있던 섬 속의 섬, 대한목장"
CNTS_300000000013836,2025년 제주마축제,제주특별자치도 제주시 애월읍 유수암리 1206,33.4075219,126.3986485,"제주마축제, 레츠런파크, 한국마사회, 제주승마, 승마체험","제주마축제, 레츠런파크, 한국마사회, 제주승마, 승마체험",한국마사회와 제주특별자치도가 주최하는 지역 대표 승마·말 문화 축제
CNTS_200000000014102,제주술익는집,제주특별자치도 서귀포시 표선면 성읍리 1410-1,33.3849016,126.79391,"쇼핑,럭셔리트래블인제주,이색체험, 전통체험, 전통주, 러닝홀리데이인제주","쇼핑,럭셔리트래블인제주,이색체험, 전통체험, 전통주, 러닝홀리데이인제주,농수산,고소리술 등",30년째 고소리술의 물방울을 살피는 명인
CNTS_200000000015038,데일리스티치,제주특별자치도 제주시 조천읍 함덕리 1255,33.5419995,126.6640605,"조천, 함덕리, 핸드메이드, 에코백, 파우치, 앞치마, 원피스, 인형","조천, 함덕리, 핸드메이드, 에코백, 파우치, 앞치마, 원피스, 인형",함덕 바다에서 살짝 떨어진 조용한 마을에 숨겨진 소품샵
CNTS_200000000015116,제주바이브,제주특별자치도 서귀포시 성산읍 고성리 571,33.4356594,126.9168129,"성산, 소품샵, 핸드메이드소품, 문구류, 장식품","성산, 소품샵, 핸드메이드소품, 문구류, 장식품",옛날 제주돌집에서 만나는 감성소품숍
CNTS_200000000011137,펠롱잡화점,제주특별자치도 제주시 구좌읍 평대리 3346-12,33.5273357,126.8550887,"커플,친구,휴식/힐링,쇼핑,관광기념품,상점/상가","커플,친구,휴식/힐링,공용주차장,현금결제,카드결제,화장실,무료 WIFI,흡연구역,편의점,카드결제,현금결제,,jejugeneralstore comein,농수산,기념품/소품,팩/문구,썬캐쳐,먹거리 기타등등,가능","제주도소품샵중에 최신소품샵 제주기념품을 대표하는 모든것들,펠롱에서만드는 핸드메이드 소품들이 가득한 이 곳"
CNTS_200000000015114,하루애제주,제주특별자치도 제주시 한경면 조수리 1644,33.3291135,126.2213991,쇼핑,쇼핑,핸드메이드 라탄제품 전문 소품샵
CNTS_300000000013031,"신석기시대 첫 사람, 제주 선샤인",제주특별자치도 제주시 한경면 고산리 3650-1,33.304205,126.1662959,"세계유산본부,국가유산청,제주고산리,고산리유적,제주축제","세계유산본부,국가유산청,제주고산리,고산리유적,제주축제","고산리 트레킹, 교육체험, 캠핑 등 복합행사를 통해 제주 고산리 유적과 국가유산을 이해하고 가치를 알아가는 프로그램"
CNTS_200000000015071,향기다움제주,제주특별자치도 서귀포시 표선면 표선리 2059-8,33.3291863,126.8237462,"서귀포, 표선, 공방, 소품샵, 향수","서귀포, 표선, 공방, 소품샵, 향수",단 하나뿐인 나의 향기를 찾아내는 곳
CNTS_300000000013673,키프터치,제주특별자치도 제주시 용담일동 2828-1 1층 키프터치,,," 제주터미널, 제주종합경기장, 삼도동, 제주시, 제주소품샵, 제주원데이클래스, 제주기념품, 터프팅, 공항근처"," 제주터미널, 제주종합경기장, 삼도동, 제주시, 제주소품샵, 제주원데이클래스, 제주기념품, 터프팅, 공항근처,현금결제,카드결제,화장실,무료 WIFI,카드결제,현금결제,,,쉬움,브랜드,,가능",터프팅 원데이 클래스 및 핸드메이드 소품샵
CNTS_200000000013589,건강한 제주를 만드는 꿀TIP! <친환경 제주여행>,,,,"부모,커플,혼자,친구,아이,맑음,흐림,체험관광,쇼핑,사계절","부모,커플,혼자,친구,아이,맑음,흐림,체험관광,쇼핑,사계절","여행에서 가장 중요한 것은 무엇일까. 그 순간을 추억할 수 있는 사진? 그곳에서만 먹을 수 있는 먹거리? 여행지를 떠오르게 하는 기념품? 능동적으로 나만의 경험을 만들어가는 모든 것이 중요한 여행이지만, 지금 가장 중요한 것은 환경을 지키는 가치 여행이 아닐까. 지금 우리가 한눈에 반한 푸르고 반짝이는 제주를 지키며 환경에 도움 되는 여행을 만들고 싶다면 지금 이 코스에 주목하라. 조금 불편하지만 즐거운 친환경 여행, 같이 떠나볼까? "
CNTS_300000000013954,다이브랜드,제주특별자치도 서귀포시 보목동 533,33.2408092,126.605944,"스킨스쿠버, 체험, 다이빙, 바다, 액티비티","스킨스쿠버, 체험, 다이빙, 바다, 액티비티,무료 WIFI,화장실",서귀포 앞바다에서 즐기는 스쿠버 다이빙
CNTS_300000000015874,서프서프,제주특별자치도 제주시 구좌읍 월정리 4-1,33.5553336,126.7966229,"구좌읍, 월정리, 서핑, 이색체험","구좌읍, 월정리, 서핑, 이색체험,실외,중,3시간 이상",입문자에게 딱 맞는 월정 서핑체험
CONT_000000000500572,제주쥬티클럽,제주특별자치도 서귀포시 성산읍 고성리 206-7,33.4445754,126.9095025,"커플,친구,액티비티,해변,체험,레저/체험,수상레저,어트랙션","커플,친구,액티비티,해변,체험,레저/체험,수상레저,어트랙션",윈드서핑&카이트서핑&패들보드 체험/강습/렌탈
CNTS_000000000022933,가족들과 즐거운 스킨십 <제주와 더 가까워지는 제주마을 & 생태체험>,,0.0,0.0,"체험관광,아이,봄","체험관광,아이,봄","청정 제주가 주는 선물을 오롯이 느끼고자 한다면 농촌체험마을로 떠나보자. 제주 곳곳, 자연생태 우수마을이 이색 생태체험과 힐링 프로그램을 갖고 사람들을 기다리고 있다. 곶자왈이 있는 자연의 숲도 좋고 바릇잡이, 낚시 등을 할 수 있는 바다도 좋다. 얕은 바다에서 아이들이 즐기면서 배움을 얻는 동안 어른들도 못지 않게 신나는 시간을 보낼 수 있다."
CNTS_200000000010293,제주도공방노꼬메,제주특별자치도 제주시 건입동 1043-2,33.5157071,126.5368837,"공방,구제주,체험프로그램,체험,쇼핑,상점/상가,어트랙션","공방,구제주,체험프로그램,체험,쇼핑,상점/상가,어트랙션,현금결제,카드결제,화장실,무료 WIFI,편의점,음료대,카드결제,현금결제,재난지원금 ,문화누리카드 ,,실내,중,,1~2시간",다양한 핸드메이드 공예를 체험을 할수 있는 공간 
CNTS_300000000013798,쏙인제주,제주특별자치도 제주시 한경면 용수리 638-1 1층 ,,,"자쿠지,핫텁,휴식,야외 온수 욕조","자쿠지,핫텁,휴식,야외 온수 욕조,공용주차장,현금결제,카드결제,화장실,무료 WIFI,음료대,유도 및 안내시설,경보 및 피난시설,카드결제,현금결제,,영어,중국어,,실내+실외,하,체험,유아시설,물놀이,,1~2시간","야외 온수 욕조(자쿠지)에서 몸을 담그며 휴식을 취할 수 있는 프리미엄 ""핫텁"" 이색 체험 관광지 입니다. 핫텁 뿐만 아니라 야외 바베큐 파티, 카페, 공간 대여 등도 가능합니다."
CNTS_300000000015841,라니멜레,제주특별자치도 제주시 조천읍 함덕리 1752-2,33.5309839,126.6658826,"함덕, 우쿨렐레, 이색체험","함덕, 우쿨렐레, 이색체험,실내,중,1~2시간",하와이 우쿨렐레를 쉽고 재밌게 체험하는 곳
CNTS_300000000012917,제주은빌레 휴양펜션,제주특별자치도 서귀포시 남원읍 의귀리 794,33.3116589,126.7167925,"후양펜션,가족펜션,감귤체험,바베큐장,조식제공,안전여행스탬프","후양펜션,가족펜션,감귤체험,바베큐장,조식제공,안전여행스탬프,공용주차장,편의점,없음,유료제공,세미나실,바베큐장,인터넷,식음료장,없음",가족이 운영해서 더욱 깨끗하게 관리되는 재방문 손님이 많은 남원 펜션
CNTS_300000000013705,2025 제주돌가마페스티발,제주특별자치도 제주시 일도이동 852,33.50447690000001,126.53519,"제주, 돌가마, 도예, 도자, 페스티발","제주, 돌가마, 도예, 도자, 페스티발",제주돌가마에서 소성한 도예작품 전시
CNTS_000000000019341,사랑이꽃피는민박,제주특별자치도 제주시 구좌읍 김녕리 1217-1,33.5582139,126.7373381,"휴식,숙소,민박,농어촌민박,게스트하우스,펜션,체험,주방기구,지질트레일","휴식,숙소,민박,농어촌민박,게스트하우스,펜션,체험,주방기구,지질트레일,공용주차장,현금결제,화장실,흡연구역,지오브랜드",김녕마을 안쪽에 위치한 세계지질공원 지질 테마 숙소 '지오하우스'
CNTS_300000000013392,제주에 왔으면 한번 해봐야지!<제주 해녀 체험2>,,,,#제주여행 #제주해녀 #제주해녀체험 #구엄어촌체험휴양마을 #도시해녀 #제주체험 #무지개요트 #해녀체험 ,#제주여행 #제주해녀 #제주해녀체험 #구엄어촌체험휴양마을 #도시해녀 #제주체험 #무지개요트 #해녀체험 ,"제주의 해녀는 어릴적 부터 물질을 배운다. 어머니가, 마을의 해녀들에게서 기술을 습득한다고 한다. 요즘 제주에는 다양한 곳에서 해녀체험을 할수 있는 곳이 생겨났다. 제대로된 물질을 하긴 어렵지만 숨을 쉬고, 잠수를 하는 것을 배우며 해녀 물질을 체험해 볼 수 있다. 제주의 푸른 바다를 온전히 느끼는 새로운 방법, 제주에 왔으니 해녀가 되어보는 것도 색다른 추억이 될것이다."
CNTS_300000000013987,김녕리어촌체험휴양마을,제주특별자치도 제주시 구좌읍 김녕리 4074-2 1층,33.5581302,126.7402139,"김녕, 어촌체험, 어촌마을, 해녀체험, 바다","김녕, 어촌체험, 어촌마을, 해녀체험, 바다,화장실,장애인 화장실,장애인 전용 주차장",어촌마을 주민들의 삶과 정서를 품은 마을 
CNTS_200000000015070,달무지개,제주특별자치도 서귀포시 남원읍 신흥리 271-4,33.3071459,126.7686156,"서귀포, 남원, 기념품샵, 공방, 원데이클래스, 아크릴화, 오일파스텔화","서귀포, 남원, 기념품샵, 공방, 원데이클래스, 아크릴화, 오일파스텔화",조용한 마을 남원 신흥리에 있는 공방 겸 기념품 가게
CNTS_300000000013060,<아이좋아! 제주라서> 가족여행으로 제주가 좋은 3가지 이유,,,,"아이, 가족여행, 여름, 휴가, 체험, 부모, 방학, 키즈, 호텔, 비자숲힐링센터, 붉은오름","아이, 가족여행, 여름, 휴가, 체험, 부모, 방학, 키즈, 호텔, 비자숲힐링센터, 붉은오름",MBTI로 사람의 취향/성향을 파악하는 세상이다. 그렇지만 MBTI로도 해석이 불가능한 경우도 있다. 바로 자녀들이다. 시시각각 변하는 자녀들의 기분과 태도에 가족여행을 계획하기 어려운 부모들이 있을 것이다. 아이가 기분 좋아야 여행도 즐겁게 기억이 남을 테니말이다. 하지만 더불어 함께하는 부모도 즐거워야 그 여행은 행복한 추억으로 남을 것이다. 아이와 부모가 모두 만족할 수 있는 즐길거리가 많은 여행지가 바로 제주도다. 즐거운 가족여행을 계획하고 있다면 제주 가족여행 핫플레이스를 놓치지 말자.
CNTS_300000000013805,2025 오라메밀꽃 폭싹 피었수다,제주특별자치도 제주시 오라이동 76-1 오라이동 산 76,33.467308,126.5115643,"제주시,오라동,메밀꽃밭,폭삭 속았수다,등산,체험,공연전시","제주시,오라동,메밀꽃밭,폭삭 속았수다,등산,체험,공연전시,공용주차장,카드결제,화장실,흡연구역,편의점,음료대,단독접근가능,쉬움","「오라 메밀꽃, 폭싹 피었수다」는 제주시 오라동 드넓은 메밀꽃밭을 무대로 열리는 가을 대표 지역축제입니다. 드라마 「폭싹 속았수다」 촬영지라는 특별한 이야기를 바탕으로, 메밀꽃밭 "
CNTS_300000000013976,시간여행자의 집,제주특별자치도 서귀포시 안덕면 서광리 456 2층,33.291382,126.3278771,"소품샵, 선물, 기념품, 빈티지, 가구, 도자기","소품샵, 선물, 기념품, 빈티지, 가구, 도자기,공용주차장,현금결제,카드결제,무료 WIFI,카드결제,현금결제,기념품/소품",시간을 거슬러 만난 특별한 소품샵 
CNTS_300000000016072,다이브맵,제주특별자치도 서귀포시 서호동 1605,33.25200480000001,126.5183408,"스쿠버다이빙, 체험, 레저, 해양스포츠, 러닝홀리데이인제주","스쿠버다이빙, 체험, 레저, 해양스포츠, 러닝홀리데이인제주,3시간 이상",매일매일이 새로운 제주바다를 즐기는 스쿠버다이빙
CNTS_000000000022009,건강장수마을 산양리 농어촌체험마을,제주시 한경면 청수리 3256-3,33.29395,126.23304,"체험관광,아이,흐림,사계절,체험,마을산책,마을관광,어린이,어트랙션","체험관광,아이,흐림,사계절,체험,마을산책,마을관광,어린이,어트랙션","건강한 밥상, 건강한 삶이 있는 건강장수마을"
CNTS_200000000010476,나홀로 떠나는 제주여행 <제주 서부 혼행 강추 POINT 5>,,,,"제주도,제주도서부,제주도혼행,혼행,제주서부혼행,애월한담해안산책로,싱게물공원,제주도예촌,자구내포구,수월봉,엉알해안,제주관광공사,비짓제주,언택트,도보,도보여행,포토스팟","제주도, 제주도서부, 제주도혼행, 혼행, 제주서부혼행, 애월한담해안산책로, 싱게물공원, 제주도예촌, 자구내포구, 수월봉, 엉알해안, 제주관광공사, 비짓제주",이제는 흔한 단어가 되어버린 혼행은 다른 사람과 일정 조율 없이 훌쩍 떠날 수 있는 장점을 가진 여행 방법이다. 이름난 유명 관광지를 빼곡한 일정에 맞춰 다니는 여행보다 자유로운 여행 일정을 추구하는 혼행은 보통 지역 주민처럼 카페나 공원 등에서 일상의 여유를 즐기는 독특한 여행 방법으로 인기가 많다. 특히 제주도는 도심 가를 벗어나면 혼행 최적지라고 할 만큼 한적하고 여유로운 곳이 많은데 서부권 지역에는 자연과 문화가 함께하는 여행지를 쉽게 찾을 수 있다. 혼행족 비율이 점점 높아지고 있는 제주도 서부권의 혼행 최적지를 소개한다.
CNTS_300000000012709,minagrooming(미나그루밍),제주특별자치도 제주시 한림읍 한림리 1589-4,33.4134783,126.2598919,"미용서비스,호텔링,반려동물,반려동물동반입장,혼저옵서개,반려동물동반_기타체험","미용서비스,호텔링,반려동물,반려동물동반입장,혼저옵서개,반려동물동반_기타체험,공용주차장,화장실,무료 WIFI",미나그루밍은 반려동물들이 편안하고 즐거운 시간을 보내기 적절한 장소다.
CNTS_200000000009692,"제주도의 숨겨진 재미를 찾는  <놀멍, 배우멍 제주마을체험 – 1일형 체험학습>",,,,"마을여행,제주도,교육여행","마을여행,제주도,교육여행","'놀멍, 배우멍 제주마을체험'은 제주를 찾아오는 여행객으로 하여금 체험을 통해 제주의
가치를 알리고 체험객과 제주 마을지역이 공존하는 지속 가능한 제주관광 생태계를 조성 하고자 제작된 체험 가이드이다.  마을체험을 통해 진정한 제주다움을 배우고 느껴보자.
"
CNTS_300000000015877,인투다이브,제주특별자치도 서귀포시 서홍동 561-6,33.2468807,126.5527981,"서귀포시내, 스쿠버다이빙, 이색체험","서귀포시내, 스쿠버다이빙, 이색체험,실외,중,2~3시간",모든 다이빙을 배울 수 있는 전문센터
CNTS_300000000015906,"지구별 MBTI 여행자< 파워E, 외향형의 아주 사적인 제주 여행>",,,,#MBTI  #자쿠지 #서핑 #비밀의숲 #독채펜션 #감성숙소 #제주도 서핑  ,#MBTI  #자쿠지 #서핑 #비밀의숲 #독채펜션 #감성숙소 #제주도 서핑  ,"넘치는 에너지와 하이텐션으로 매사 열정적인 파워 E형을 위한 아주 사적인 제주 여행 가이드. 열정적인 외향형에게는 여행도 곧 도전이고 모험이다. 궁금한 건 못 참고, 하고 싶은 것, 먹고 싶은 것 전부 경험 해봐야 직성이 풀리는 그들의 여행 스타일. 제주의 자연에서 즐기는 짜릿한 액티비티와 특색 있는 로컬 맛집 체험 등 모험 가득한 제주 여행 코스를 제안한다."
CONT_000000000500725,아름낭,제주특별자치도 서귀포시 강정동 1938-1,33.258267,126.4946813,"공방,쇼핑,관광기념품,상점/상가","공방,착한가격 업소",1980년부터 제주도에 전통가구 공방을 설립한 뒤로 35년간 오직 친환경 수제품만 제작해온 목공예 브랜드
CNTS_200000000014129,"MZ세대 어라운드 제주 실전편,  나이스 샷! <제주 골프 여행> ",,,,"골프, 골프여행, 에코랜드, 캐슬렉스, 골프용품렌탈","골프, 골프여행, 에코랜드, 캐슬렉스, 골프용품렌탈","골프 입문자라면 제주 여행을 계획할 때 라운딩 생각이 간절할 테다. 골프에 대한 열정은 제주에서 활활 지펴지니까. 광활하고 푸른 들판을 지닌 제주에서 요즘은 어떤 서비스를 누릴 수 있는지, 나의 몸과 구력을 확인해 최상의 골프클럽을 체험해 볼 수 있는 렌털 숍 등을 꼼꼼하게 확인해 제주 골프 여행을 계획하자. "
CNTS_300000000013799,"제2회 한라생태숲 산림문화 행사(에코 IN(人) 포레스트! 숲, 사람을 품다)",제주특별자치도 제주시 용강동 산 14-41,33.4314821,126.5946972,"산림문화, 생태체험, 자연과휴식, 힐링, 감성체험","산림문화, 생태체험, 자연과휴식, 힐링, 감성체험",추석 연휴 속 자연에서의 쉼과 위로를 나누는 생태 감성의 장
CNTS_300000000013532,아일로사,제주특별자치도 제주시 조천읍 북촌리 1262-1,33.54803880000001,126.6925813,"장미, 정원, 장미정원, 꽃, 화훼, 사진, 인생샷, 여름꽃, 수국, 아일로사","장미, 정원, 장미정원, 꽃, 화훼, 사진, 인생샷, 여름꽃, 수국, 아일로사,현금결제,카드결제,화장실,무료 WIFI,음료대,공용주차장,카드결제,현금결제,단독접근가능,실내+실외,하,체험,사진찍기,1시간 미만",아름다운 장미와 수국을 만날 수 있는 정원
CNTS_200000000014302,쿠키네,제주특별자치도 제주시 애월읍 신엄리 1280-15,33.4713897,126.3668522,"반려동물, 반려동물동반입장, 혼저옵서개, 반려동물동반_기타체험","반려동물, 반려동물동반입장, 혼저옵서개, 반려동물동반_기타체험,공용주차장,화장실,무료 WIFI",쿠키네는 애월읍 신엄리에 반려동물 미용실이다.
CNTS_000000000018521,신대산전망대,제주특별자치도 제주시 추자면 예초리,33.954597,126.34063,"부모,친구,커플,혼자,경관/포토,휴식/힐링,액티비티,체험,레저/체험,포토스팟,어트랙션","부모,친구,커플,혼자,경관/포토,휴식/힐링,액티비티,아주 어려움",신대산에 있는 전망대
CNTS_200000000015185,제주아리온승마장,제주특별자치도 서귀포시 안덕면 동광리 1391,33.3109161,126.3341065,"서귀포, 안덕면, 동광리, 승마, 포니, 이색체험","서귀포, 안덕면, 동광리, 승마, 포니, 이색체험,실내+실외,중,1시간 미만",어린이도 쉽게 탈 수 있는 승마체험
CNTS_300000000012710,달중이네펫호텔,제주특별자치도 제주시 노형동 1281-4,33.4869252,126.4776171,"펫호텔,펫놀이방,반려동물,반려동물동반입장,혼저옵서개,반려동물동반_기타체험","펫호텔,펫놀이방,반려동물,반려동물동반입장,혼저옵서개,반려동물동반_기타체험,공용주차장,화장실,무료 WIFI",달중이네 펫호텔은 반려동물에게 필요한 서비스를 전부 제공하는 곳이다.
CNTS_300000000015875,월정퀵서프,제주특별자치도 제주시 구좌읍 월정리 33-12,33.5547934,126.7986457,"구좌읍, 월정리, 서핑, 이색체험","구좌읍, 월정리, 서핑, 이색체험",에메랄드빛 월정해변에서 즐기는 서핑
CNTS_200000000013806,제주마을산책 <표선면-가을편  [하]>,,,,"제주마을산책, 제주한달살이, 워케이션, 제주마을, 로컬여행, 표선면, 제주가을여행, 제주도보여행","제주마을산책, 제주한달살이, 워케이션, 제주마을, 로컬여행, 표선면, 제주가을여행, 제주도보여행","서늘한 가을바람을 맞으며 제주를 즐기는 방법은 무궁무진하다.여름의 바다를 가장 짜릿하게 즐길 수 있는 곳이 제주였다면, 가을의 서늘함과 문화를 즐길 수 있는 곳도 제주임을 말하고 싶다. 제주를 즐기는 방법은 무궁무진하다. 그동안 경험하지 못했던 특별한 제주의 문화를 마주할 수 있는 표선면으로 향해보자. 전통이 고스란히 깃든 제주민속촌은 민족 명절 추석을 앞두고 있다. 또한 마을 구석구석 볼거리와 먹거리, 체험 거리를 고루 갖추었다. 표선면의 다양한 매력으로 여행자들의 발길을 이끄는 스폿들을 만나보자."
CNTS_200000000014096,아라도예,제주특별자치도 제주시 애월읍 광령리 1227-3,33.3701721,126.4819697,"쇼핑,럭셔리트래블인제주","쇼핑,기념품/소품,도예품 등",김수현 작가의 제주식 분청사기
CNTS_200000000015411,김만덕주간 나눔큰잔치,제주특별자치도 제주시 건입동 1444,33.5181049,126.5266094,"김만덕기념관,나눔큰잔치,김만덕,축제,행사,이벤트","김만덕기념관,나눔큰잔치,김만덕,축제,행사,이벤트","김만덕주간 ‘나눔큰잔치’를 통하여 김만덕의 업적을 기리고 위대한 나눔과 도전정신을 제주도의 시대정신으로 계승 발전시키며,  나눔문화의 직*간접 체험을 통하여 나눔문화 확산에 이바지하고자 합니다."
CNTS_300000000013611,월정바즐서핑앤패들보드,제주특별자치도 제주시 구좌읍 월정리 469-1,33.5553225,126.7942488,"서핑, 패들보드, 체험, 일일강습, 월정리, 월정해변, 바다, 물놀이","서핑, 패들보드, 체험, 일일강습, 월정리, 월정해변, 바다, 물놀이,현금결제,카드결제,화장실,무료 WIFI,카드결제,현금결제","월정리 해수욕장에서 서핑, 배들보드 강습을 전문으로 하는 곳"
CNTS_200000000008612,제주도연게스트하우스,제주특별자치도 제주시 한림읍 귀덕리 3769,33.4337256,126.2768395,"게스트하우스,연동,숙소,조식,체험,공공와이파이존,해수욕장,수상레저,바비큐,교통","게스트하우스, 연동,공용주차장,현금결제,카드결제,화장실,무료 WIFI,흡연구역,음료대,유도 및 안내시설,경보 및 피난시설,카드결제,현금결제,계좌이체 가능,,아주 어려움,없음,동반불가능,무료제공,전체금연,식음료장,세탁서비스,연회장,인터넷,제주도모퉁이스낵연회장,불가,없음,운행안함","특별한 인연과 함께 즐길 수 있는 게스트하우스. 

"
CNTS_000000000021179,월정소랑,제주특별자치도 제주시 구좌읍 월정리 694-1,33.557644,126.79286,"휴식,숙소,펜션,휴양펜션,독채,해수욕장,공공와이파이존,온돌방,체험,돌담길","휴식,숙소,펜션,휴양펜션,독채,해수욕장,공공와이파이존,온돌방,체험,돌담길,화장실",소랑(사랑)이 한가득
CNTS_200000000007464,밸런싱 요가,제주특별자치도 제주시 아라1동 2338-4,33.4791921,126.5431924,"혼자,필라테스,메디컬요가,요가,어트랙션","혼자,필라테스,메디컬요가,요가,어트랙션,공용주차장,현금결제,카드결제,화장실,체험,요가, 기구 필라테스, 메디컬 요가,1~2시간",잔잔한 호흡의 요가와 함께 기구를 활용한 필라테스를 즐겨보자. 제주 시내 아라동에 있는 밸런싱요가에서는 다양한 프로그램을 체험할 수 있다.
CNTS_000000000019686,스토리하우스펜션,제주특별자치도 제주시 이호일동 320-1,33.5019633,126.4632175,"휴식,숙소,휴양펜션,펜션,바비큐,공공와이파이존,해수욕장,가족,자연경관,체험,골프","휴식 ,공용주차장,현금결제,카드결제,화장실,무료 WIFI,편의점,유도 및 안내시설,경보 및 피난시설,아주 어려움",전객실 바다전망으로 제주바다가 한눈에 보이는 펜션
CNTS_000000000001510,제주힐CC,제주특별자치도 제주시 용강동 산 5,33.4399611,126.6020248,"골프,액티비티,체험,레저/체험,어트랙션","골프,액티비티,체험,레저/체험,어트랙션,공용주차장,현금결제,카드결제,화장실,무료 WIFI,흡연구역,편의점,음료대,유도 및 안내시설,경보 및 피난시설,아주 어려움",한라산 중산간 영평동에 위치한 골프장
CNTS_300000000013625,제5회 웰니스 숲힐링 축제,제주특별자치도 서귀포시 호근동 산 1,33.3025489,126.5245747,"행사, 체험, 웰니스, 숲, 생태숲, 서귀포치유의 숲","행사, 체험, 웰니스, 숲, 생태숲, 서귀포치유의 숲","숲과 숨이 하나의 호흡이 될 때 비로소 느끼는 온전한 쉼, 서귀포 숲이 전하는 푸르른 내일의 희망"
CNTS_200000000014998,어바웃제주,제주특별자치도 제주시 이호일동 369,33.5026913,126.4568685,"제주시내, 이호테우, 소품샵, 캔들, 문구류, 잡화","제주시내, 이호테우, 소품샵, 캔들, 문구류, 잡화",이호테우 말 등대 근처 공방 겸 소품샵
CNTS_300000000013707,그림휴가,제주특별자치도 서귀포시 신효동 768-3 1층,,,"제주, 서귀포, 갤러리, 미술관, 작은미술관, 그림공방, 작품감상, 작품구매, 초상화, 주문제작, 소규모클래스, 원데이클래스, 미술작가, 김미형","제주, 서귀포, 갤러리, 미술관, 작은미술관, 그림공방, 작품감상, 작품구매, 초상화, 주문제작, 소규모클래스, 원데이클래스, 미술작가, 김미형,,,실내,하,체험,공연/전시,그림 좋아하시는 분의 관람과 체험,1~2시간","미술작가 김미형이 서귀포에 문을 연 미술공간이다. 작품 감상 및 구매, 초상화 주문제작, 소규모 클래스, 원데이 클래스 등을 즐길 수 있다."
CONT_000000000501121,해마지펜션,제주특별자치도 서귀포시 성산읍 신천리 105-1,33.3545979,126.8612189,"휴식/치유,펜션,휴양펜션,체험,독채,자연경관,산책로,올레길,승마체험,바비큐","휴식/치유,공용주차장,현금결제,카드결제,화장실,무료 WIFI,흡연구역,음료대,유도 및 안내시설,경보 및 피난시설,아주 어려움",제주도 최고의 일출명소 해마지펜션
CONT_000000000500929,선스토리,제주특별자치도 서귀포시 표선면 표선리 1160-1,33.31633,126.8377,"펜션,숙소,휴양펜션,조식 포함,정원,해안도로,산책로,체험,캠핑","펜션,공용주차장,현금결제,카드결제,화장실,무료 WIFI,음료대,아주 어려움",표선에 위치한 나무를 많이 사용해 지은 모던한 분위기의 펜션
CNTS_200000000013598,제주베스트힐,제주특별자치도 제주시 조천읍 교래리 786-29,33.4276176,126.6665803,"관광지,안전여행스탬프,레저/체험,야영장,오름,오름투어,도보,도보여행",관광지,맑고 깨끗한 원시림 곶자왈에서 자연에 동화되어가는 자신을 발견할 수 있는 공간
CNTS_200000000007771,라신비,제주특별자치도 제주시 한림읍 귀덕리 3895,33.4378031,126.2755954,"안전인증숙소,숙소,공공와이파이존,해수욕장,바비큐,체험,안전인증민박","안전인증숙소,공용주차장,무료 WIFI,스파,바베큐장","귀덕 해안도로에 위치한 오션뷰 펜션
"
CNTS_300000000016114,러닝홀리데이 인 제주 < Discover Jeju-자연체험>,,,,"배움이있는휴가, 러닝홀리데이, 워케이션, 제주한달살이, 제주체험","배움이있는휴가, 러닝홀리데이, 워케이션, 제주한달살이, 제주체험","「러닝 홀리데이 인 제주」는 ‘쉼’이 있는 여행 속에서 다양한 학습 프로그램에 참여하는 형태의 새로운 글로벌 여행 트렌드를 제주도가 선도해 보고자 기획되었다. Discover Jeju, Art Experiences, Cultural Lessons, Authentic Jeju 4개 분야로 제주에서 머물며 배울 수 있는 33개의 프로그램을 소개한다. 「러닝 홀리데이 인 제주」 를 통해 제주에서의 색다른 배움을 찾고 학습하며,여행 이후의 일상을 좀 더 의미있게 설계하는데 도움이 되기를 바란다."
CNTS_200000000007521,덕천리 팔자 좋아 길,제주특별자치도 제주시 구좌읍 덕천리 ,33.4827438,126.7464684,"걷기/도보,체험,도보여행,도보,어트랙션",걷기/도보,덕천리영농 체험장 인근에 위치한  산책하기 좋은  숲길.
CNTS_200000000013349,제주 문화유산 체험프로그램,제주특별자치도 제주시 한경면 고산리 3650-1,33.30418,126.166345,"이벤트,어린이,문화관광,사적지,체험,역사유적,축제","이벤트,어린이,문화관광,사적지",제주고산리유적안내센터와 제주고고학연구소가 진행하는 제주 역사문화유산 탐방 프로그램
CNTS_200000000014281,"안녕, 상이 친구들",제주특별자치도 제주시 아라일동 6050-1 ,33.4261379,126.5626925,"애견미용실,예스펫존,반려동물여행,반려동물,반려동물동반입장,혼저옵서개,반려동물동반_기타체험","애견미용실,예스펫존,반려동물여행,반려동물,반려동물동반입장,혼저옵서개,반려동물동반_기타체험,공용주차장,화장실,무료 WIFI","안녕, 상이 친구들은 배냇 미용, 대형견, 사나운 친구(긍정&훈육&행동교정) 전문 반려견 미용실이다. "
CNTS_300000000016020,‘위클리(Weeekly)’의 리얼리티 예능 <위클위클 홀리데이> 따라잡기,,,,"위클위클홀리데이, 위클리, 리얼리티예능따라잡기, 제주체험, 위클벅적, 아베베베이커리, 제주스타벅스, 승마체험, ATV체험, 제주카페, 레일바이크","위클위클홀리데이, 위클리, 리얼리티예능따라잡기, 제주체험, 위클벅적, 아베베베이커리, 제주스타벅스, 승마체험, ATV체험, 제주카페, 레일바이크","제주도로 워킹 홀리데이를 체험하러 온 ‘위클리(Weeekly)’의 리얼리티 예능 ‘위클위클 홀리데이’가 조회수 100만 뷰를 달성하며 성황리에 종영되었다. 위클리 멤버들이 워킹홀리데이 체험 외  제주에서 가보고 싶었던 곳, 하고 싶었던 것, 먹고 싶었던 것을 알아보자. 위클리만의 밝고 활기찬 ‘위클벅적’ 매력 가득한 장소로 떠나보자. 

* 해당 콘텐츠는 ‘위클위클 홀리데이’ 촬영 전 멤버들이 작성한 입사지원서를 참고하여 작성되었습니다."
CNTS_300000000012743,이루다동물병원,제주특별자치도 제주시 도련일동 1917-1,33.5167642,126.581414,"반려동물병원,반려동물,반려동물동반입장,혼저옵서개,반려동물동반_기타체험","반려동물병원,반려동물,반려동물동반입장,혼저옵서개,반려동물동반_기타체험,공용주차장,화장실,무료 WIFI,유도 및 안내시설,경보 및 피난시설,엘리베이터",이루다동물병원은 Y식자재마트 건무 지하주차장 입구 맞은편에 위치한 병원이다.
CNTS_300000000013505,몽생이 5월 대모험,제주특별자치도 제주시 애월읍 유수암리 1206,33.4075219,126.3986485,"렛츠런파크제주, 제주축제, 제주체험행사, 어린이플리마켓, 몽생이대모험","렛츠런파크제주, 제주축제, 제주체험행사, 어린이플리마켓, 몽생이대모험",렛츠런파크 제주에서 가족과 함께 즐기는 5월 몽생이 대모험! 다양한 체험과 공연! 맛있는 먹거리 가득!
CNTS_300000000012780,세난포레스트,제주특별자치도 제주시 조천읍 와산리 926-7 2층,33.4936941,126.6781291,"커플,친구,휴식/힐링,공방, 워케이션","커플,친구,휴식/힐링,공방, 워케이션,공용주차장,현금결제,카드결제,화장실,무료 WIFI,편의점,음료대,유도 및 안내시설,경보 및 피난시설,카드결제,현금결제,,영어,,어려움,없음,동반불가능,없음,전체금연,식음료장,세탁서비스,인터넷,비즈니스시설,,유아침대,,없음,운행안함",최대 4인 사용할 수 있도록 설계된 유럽풍 렌탈하우스이다.
CNTS_200000000007595,술도가제주바당,제주특별자치도 제주시 구좌읍 한동리 1113-2,33.4934702,126.8991608,"술,전통주,술빚기체험,양조장,맑은바당,한바당,탁주,음식,럭셔리트래블인제주,약주","술,전통주,술빚기체험,양조장,맑은바당,한바당,탁주,음식,럭셔리트래블인제주,약주,화장실,공용주차장,현금결제,카드결제,카드결제,현금결제,맑은바당,어린이 출입가능",제주에서 직접 가족이 직접 농사를 짓고 제주의 용암 해수를 이용해 술을 제조하는 술도가제주바당.
CNTS_200000000015049,카키키리,제주특별자치도 제주시 구좌읍 월정리 469-1,33.5553225,126.7942488,"구좌읍, 월정리, 소품샵, 잡화, 핸드메이드소품","구좌읍, 월정리, 소품샵, 잡화, 핸드메이드소품",규모는 작지만 알차게 기념품 쇼핑을 즐길 수 있는 월정리 소품샵
CNTS_000000000019866,제주플래티늄카라반,제주시 애월읍 하귀미수포길 5-8,33.48435,126.40223,"야영장,캠핑장,액티비티,맑음,체험,레저/체험,캠핑,언택트,어트랙션","야영장,캠핑장,액티비티,맑음,공용주차장,현금결제,카드결제,화장실,무료 WIFI,음료대,유도 및 안내시설,경보 및 피난시설",독일 전통 카라반 하비와 함께 애월 바닷가를 즐길 수 있는 곳
CNTS_200000000007911,헌치 게스트하우스,제주특별자치도 제주시 구좌읍 송당리 2148-10 제주 오석심 공예 명장관,33.4561819,126.7673413,"구좌,게스트하우스,숙소,카페,온돌방,바비큐,공공와이파이존,해수욕장,체험,무장애관광","구좌,게스트하우스,숙소,카페,온돌방,바비큐,공공와이파이존,해수욕장,체험,무장애관광,공용주차장,현금결제,카드결제,화장실,무료 WIFI,흡연구역,편의점,음료대,유도 및 안내시설,경보 및 피난시설,카드결제,현금결제,,영어,,시각장애인 접근성,어려움,없음,동반불가능,없음,흡연구역제공,식음료장,인터넷,바베큐장,베란다 / 화장실 / TV / 냉장고 / 옷걸이 / 거울 / 선풍기 / 에어컨 / 샴푸 / 바디샴푸 / 수건 / 생수 / 비상벨 / 비상전등 / 소화기 등,,없음,운행안함",비자림 숲 옆에 위치해 있는 게스트하우스. 한지 공예 상설 전시장과 카페가 마련되어 있어 자연과 문화를 모두 즐길 수 있다.
CNTS_200000000007931,한림 퐁낭하우스 펜션,제주특별자치도 제주시 한림읍 대림리 1473-3 ,33.4252987,126.27708239999993,"안전인증숙소,숙소,공공와이파이존,해수욕장,바비큐,한옥,수상레저,체험,자연학습원,자연학습장,농어촌민박","안전인증숙소,숙소,공공와이파이존,해수욕장,바비큐,한옥,수상레저,체험,자연학습원,자연학습장,농어촌민박,,,동반가능",한림에 위치한 안전인증민박
CNTS_200000000015044,은쥬얼lee,제주특별자치도 제주시 구좌읍 한동리 8,33.5393634,126.836157,"구좌읍, 한동리, 실버액세서리, 핸드메이드소품","구좌읍, 한동리, 실버액세서리, 핸드메이드소품",변하지 않아 매력적인 실버 액세서리 잡화점
CNTS_200000000009413,마눌펜션,제주특별자치도 제주시 애월읍 상가리 2029-1,33.4493108,126.3325117,"스몰웨딩,감귤체험,펜션,숙소,휴양펜션,바비큐,온돌방,무장애관광","스몰웨딩,감귤체험,펜션,숙소,휴양펜션,바비큐,온돌방,무장애관광,공용주차장,화장실,무료 WIFI,흡연구역,경보 및 피난시설,카드결제,현금결제,단독접근가능,쉬움,동반불가능,없음,흡연구역제공,바베큐장,없음,운행안함",스몰 웨딩과 감귤 체험 그리고 아이들이 넓은 잔디밭을 뛰어놀 수  있는 이색적인 숙소
CNTS_000000000018221,아침의향기,제주특별자치도 서귀포시 색달동 1609-1,33.265678,126.414409,"펜션,숙소,휴양펜션,주차장,중문관광단지,서귀포,체험,바비큐","펜션,숙소,휴양펜션,주차장,중문관광단지,서귀포,체험,바비큐,공용주차장,현금결제,카드결제,화장실,무료 WIFI,편의점,유도 및 안내시설,경보 및 피난시설,아주 어려움","제주에서 즐기는 고품격 서비스, 아침의 향기와 함께 하세요"
CNTS_200000000007340,제주의 시원한 여름을 닮은 독보적인 감성 <라탄의 매력 속으로>,,,,"친구,쇼핑,체험관광,여름,라탄,라탄소품,원데이클래스,인테리어소품","친구,쇼핑,체험관광,여름,라탄,라탄소품,원데이클래스,인테리어소품",여름을 맞아 시원한 느낌의 라탄 소재의 소품들이 인기를 끌고 있다. 제주에는 라탄 열풍이 불기 이전부터 마을 한 곳에 자리 잡고 있던 소품샵들이 있다. 제주 라탄은 어떤 특별함이 있는지 함께 구경해보자.
CNTS_300000000015861,서프론트,제주특별자치도 제주시 애월읍 곽지리 1613,33.4491798,126.3056425,"애월, 곽지, 서핑, 이색체험","애월, 곽지, 서핑, 이색체험,실외,중,2~3시간",푸른 곽지해수욕장에서 신나는 서핑체험
CNTS_300000000013557,제주도에서 만나는 '찾아가는 과학관',제주특별자치도 제주시 일도이동 996-1,33.5063429,126.5315162,"국립광주과학관, 이동과학관, 과학문화체험, 천체관측, 로봇댄스","국립광주과학관, 이동과학관, 과학문화체험, 천체관측, 로봇댄스","제주 바람을 타고 찾아가는 과학 놀이터, 국립광주과학관 이동과학관에서 만나요"
CNTS_200000000015147,타오하우스,제주특별자치도 제주시 도두일동 1700-8,33.5082788,126.4723912,"제주시내, 도두, 커피, 핸드드립, 이색체험","제주시내, 도두, 커피, 핸드드립, 이색체험,실내,하,3시간 이상",맛과 향을 만끽하는 핸드드립 커피체험
CNTS_300000000012725,해피애견놀이방,제주특별자치도 제주시 오라삼동 2238-5,33.498056,126.5079461,"애견놀이터,반려동물,반려동물동반입장,혼저옵서개,반려동물동반_기타체험","애견놀이터,반려동물,반려동물동반입장,혼저옵서개,반려동물동반_기타체험,공용주차장,화장실",해피애견은 홀로 있는 강아지들의 외롭거나 스트레스를 받는 강아지들을 위해 만든 곳이다.
CNTS_000000000021483,아모르하우스 오션뷰펜션,제주특별자치도 제주시 구좌읍 종달리 1380,33.50878,126.90189,"휴식,숙소,펜션,휴양펜션,바비큐,공공와이파이존,수상레저,독채,온돌방,단체여행객,체험,해수욕장","휴식,숙소,펜션,휴양펜션,바비큐,공공와이파이존,수상레저,독채,온돌방,단체여행객,체험,해수욕장,공용주차장,현금결제,카드결제,화장실,무료 WIFI,유도 및 안내시설,아주 어려움","다양한 체험과 편안함을 한번에, 아모르하우스"
CNTS_200000000007222,삼양 셋다리물,제주특별자치도 제주시 삼양1동 1938-9,33.5294857,126.5894095,"여름,아이,용천수,노천탕,자연경관,체험,어린이,수상레저","여름,아이,용천수,노천탕,화장실",용천수가 나오는 노천탕.
CNTS_000000000022250,한라앤탐 펜션,제주특별자치도 서귀포시 남원읍 위미리 887-1,33.27298469999999,126.6742609,"숙소,휴양펜션,펜션,독채,단체여행객,주차장,식당,올레,레저/체험","숙소,휴양펜션,펜션,독채,단체여행객,주차장,식당,올레,레저/체험","제주 전통 돌담집의 느낌을 제대로 살린 공간으로 서까래는 그대로 살리고 현대식으로 리모델링되어 이색적이며, 객실에서 창 밖으로 바라보이는 감귤밭 풍경이 따스함을 전해주는 펜션이다."
CNTS_000000000019251,다이브게스트하우스,제주도 서귀포시 강정동 349-2,33.24188,126.50498,"숙소,게스트하우스,민박,수상레저,체험,레저/체험,스쿠버다이빙,주차장,공공와이파이존,교통,농어촌민박","숙소,게스트하우스,민박,수상레저,체험,레저/체험,스쿠버다이빙,주차장,공공와이파이존,교통,공용주차장,현금결제,카드결제,화장실,무료 WIFI,흡연구역,음료대,유도 및 안내시설,경보 및 피난시설,아주 어려움",스쿠버다이빙 체험 기회를 제공하는 게스트하우스
CNTS_000000000022008,테우마을 수원리 농어촌체험마을,제주시 한림읍 수원리 725-1,33.42559,126.264656,"체험관광,아이,흐림,사계절,체험,마을산책,마을관광,어린이,어트랙션","체험관광,아이,흐림,사계절","쪽빛 바다와 푸른 작물을 품에 안은 마을
· 제주시 한림읍 수원리
· 올레15코스"
CNTS_200000000014304,디어펫,제주특별자치도 제주시 연동 1531-7,33.4764981,126.4883789,"애견미용실,애견유치원,애견호텔,반려동물,반려동물동반입장,혼저옵서개,반려동물동반_기타체험","애견미용실,애견유치원,애견호텔,반려동물,반려동물동반입장,혼저옵서개,반려동물동반_기타체험,공용주차장,화장실,무료 WIFI",디어펫은 제주시 연동에 위치한 반려동물 미용실이다.
CNTS_300000000013351,따스한 감귤국 제주,,,,#비짓제주 #제주청년서포터즈 #제주착한가격 #가성비 #제주도민추천  #제주감귤 #감귤국 #너와의첫여행 #감귤따기체험 #제주오일장 #감귤박람회,#비짓제주 #제주청년서포터즈 #제주착한가격 #가성비 #제주도민추천  #제주감귤 #감귤국 #너와의첫여행 #감귤따기체험 #제주오일장 #감귤박람회,"제주하면 가장 먼저 떠오르는 색깔이 무엇이 있으세요? 많은 색이 있지만, 제주하면 가장 먼저 떠오르는 색깔은 바로 감귤색일 것 같은데요. 오늘은 제주의 감귤색인 주황색을 찾아 떠나보도록 해요. 주황색은 제주에서 많이 찾아볼 수 있는데요. 
특히 제주에서 나는 귤, 한라봉, 구좌당근 등이 있어요.  귤이 주황색이 아니였으면 어땠을까 하는 독특한 상상도 잠시, 주황색이 아닌 감귤색이라고 표현하면 어떨까 하는 마음도 들어요. 주황색은 따뜻한 느낌을 주는 색으로 활력, 만족, 적극성을 상징한다고 해요. 
또한 명랑하고, 친근한 느낌을 주며, 식욕을 증진시키기도 하고요. 산업 현장에서는 안전 색채로 사용하기도 합니다. 그만큼 톡.톡.튀.는. 제주만의 감귤색을 찾아 떠나보아요.  제주에서 나고 자란 제가 찐으로 추천하는 가성비 갑, 제주 히든 플레이스를 여러분들께 소개하오니 우리들만의 젊은 감각으로 똑똑하고 기분 좋은 소비를 해보자구요.  그래서 방실방실 웃고 싶은 제주를 함께 만들어봐요."
CNTS_300000000012729,캣츠앤독스,제주특별자치도 서귀포시 동홍동 382-1,33.248925,126.5708639,"반려견미용,반려견유치원,반려동물,반려동물동반입장,혼저옵서개,반려동물동반_기타체험","반려견미용,반려견유치원,반려동물,반려동물동반입장,혼저옵서개,반려동물동반_기타체험,공용주차장,무료 WIFI","‘포포’와 ‘리치’가 지키고 있는 캣츠앤독스는 반려견 유치원, 반려견 미용, 반려견 호텔, 모두 가능한 반려동물 멀티샵이다."
CNTS_000000000021136,세화리움,제주특별자치도 제주시 구좌읍 세화리 1-26,33.523354,126.8624,"휴식,숙소,조식 포함,해수욕장,공공와이파이존,체험,guesthouse,가족","휴식,숙소,조식 포함,해수욕장,공공와이파이존,체험,guesthouse,가족,화장실,아주 어려움",세화리의 정취를 느낄 수 있는 ‘세화스러운’ 휴식 공간
CNTS_300000000016077,텐타임즈,제주특별자치도 서귀포시 강정동 750,33.2325238,126.5000267,"레져, 체험, 패들보드, 러닝홀리데이인제주","레져, 체험, 패들보드, 러닝홀리데이인제주,실외,1~2시간",제주의 숨은 명소에서 유유자적 패들보드
CONT_000000000500983,오랑제리펜션,제주특별자치도 서귀포시 법환동 680-1,33.2446817,126.5145411,"펜션,휴양펜션,바비큐,노래방,단체여행객,수상레저,계곡,해변,가족,온돌방,공공와이파이존,해수욕장,체험","펜션,공용주차장,현금결제,카드결제,화장실,무료 WIFI,흡연구역,음료대,유도 및 안내시설,경보 및 피난시설,아주 어려움",올레 7코스에 위치해 있으며 바닷가도 가까운 오랑제리펜션
CNTS_300000000015835,니모스토리,제주특별자치도 제주시 구좌읍 김녕리 1267-1,33.5582481,126.7540615,"맑음,체험관광,액티비티,여름,해변, 구좌읍, 김녕, 스노쿨링, 패들보드, 서핑","구좌읍, 김녕, 스노쿨링, 패들보드, 서핑,실외,중,1시간 미만",김녕해수욕장에서 즐기는 시원한 스노쿨링
CNTS_300000000013408,우리의 청춘 이제부터 시작이다 -(O)rganic의 제주여행 이야기-⑤,,,,#액티브시니어 #힐링여행  #자연여행 #귀농 #씬오브제주 #염색체험 #신의한모 #유수암리농촌체험 #보말이네 #제주로컬음식 #오름숲길 트레킹 #옥돔식당 #무릉리마을투어 #무릉리 #보름숲 #흑돼지 #레몬뮤지엄 #의귀리부부막국수 #동백마을 #고사리파스타 #쿠킹클래스 #머체왓숲길 #교래손칼국수 #야원,#액티브시니어 #힐링여행  #자연여행 #귀농 #씬오브제주 #염색체험 #신의한모 #유수암리농촌체험 #보말이네 #제주로컬음식 #오름숲길 트레킹 #옥돔식당 #무릉리마을투어 #무릉리 #보름숲 #흑돼지 #레몬뮤지엄 #의귀리부부막국수 #동백마을 #고사리파스타 #쿠킹클래스 #머체왓숲길 #교래손칼국수 #야원,"6인 'senior’의 제주여행 이야기는 인생의 제2막을 맞이한 6명이 제주도에서 발견한 가치와 경험을 담고 있다. 혼자, 싱글친구들과의 제주 여행을 통해 보내며 인생의 새로운 도전을 해보자"
CNTS_200000000011953,형형색색 감성여행 <남조로 여행>,,,,"부모,커플,혼자,친구,아이,맑음,흐림,경관/포토,휴식/힐링,테마공원,체험관광,드라이브,문화유적지,봄,겨울,가을,여름,일출,일몰,밤,올레,오름,해변,4.3,실내,사계절,청년,중/장년,노년,휴식/치유,전시와 행사,포토스팟","부모,커플,혼자,친구,아이,맑음,흐림,경관/포토,휴식/힐링,테마공원,체험관광,드라이브,문화유적지,봄,겨울,가을,여름,일출,일몰,밤,올레,오름,해변,4.3,실내,사계절,청년,중/장년,노년,휴식/치유,전시와 행사","제주하면 흔히 청정 자연의 초록색과 바다를 상징하는 푸른색을 떠올리기 쉽지만 실제로 제주는 더 풍부하고 다채로운 색상을 품고 있다. 화려한 꽃들로 가득한 에코랜드, 제주 전통의 얼과 역사를 검은색 현무암으로 표현한 돌문화공원, 붉은 화산송이(스코리아)로 덮인 붉은오름,  에머랄드빛 제주 바다와 맞물려온 큰엉 해안경승지까지. 여행지에서 발견할 수 있는 여러 색을 통해 즐거운 여행길로 안내하고자 한다."
CNTS_000000000022353,서귀포 다이브센터,제주특별자치도 서귀포시 남원읍 하례리 64-10,33.259311050135764,126.63975217440186,"액티비티,친구,커플,맑음,체험,레저/체험,수상레저,어트랙션","액티비티,친구,커플,맑음,체험,레저/체험,수상레저,어트랙션",환상의 제주도 푸른 바다 속을 여행하는 스쿠버다이빙을 체험할 수 있는 곳
CNTS_200000000008075,칠머리길,제주특별자치도 제주시 건입동 956-16,33.5170679,126.5359943,"휴식/힐링,걷기/등산,자연경관,체험,도보여행,도보,어트랙션","휴식/힐링,걷기/등산","칠머리당 터를 만나 볼 수 있는 제주의 옛 골목길
"
CNTS_300000000015853,바다다이브,제주특별자치도 서귀포시 서귀동 253-10,33.2497702,126.568511,"서귀포시내, 스쿠버다이빙, 이색체험","서귀포시내, 스쿠버다이빙, 이색체험,실외,중",푸른 제주 바다를 탐험하는 다이빙체험
CNTS_200000000015094,란나 선물가게,제주특별자치도 서귀포시 안덕면 사계리 3594-2,33.2487383,126.3224032,"쇼핑,서귀포, 안덕면, 사계리, 소품샵, 액세서리, 모빌, 라탄","쇼핑,서귀포, 안덕면, 사계리, 소품샵, 액세서리, 모빌, 라탄",안목 있는 사장님의 핸드메이드 소품숍
CNTS_000000000019639,중문승마공원,제주특별자치도 서귀포시 대포동 2270,33.24225,126.44533,"커플,친구,아이,액티비티,봄,가을,승마,체험,레저/체험,어린이,어트랙션","커플,친구,아이,액티비티,봄,가을,승마,체험,레저/체험,어린이,어트랙션,공용주차장,현금결제,카드결제,화장실,아주 어려움",중문에서 즐기는 승마 체험
CNTS_300000000015864,성산스쿠버리조트,제주특별자치도 서귀포시 성산읍 성산리 143-4,33.4609616,126.9334663,"성산, 스쿠버다이빙, 이색체험","성산, 스쿠버다이빙, 이색체험,실외,중,3시간 이상",미지의 성산포 해저 속으로 다이빙체험
CNTS_300000000013546,중문서핑스쿨,제주특별자치도 서귀포시 색달동 2877-26 중문서핑스쿨,33.2507278,126.4145161,"서핑, 액티비티, 물놀이, 중문, 색달해수욕장, 바다, 해수욕장, 강습, 체험, 클래스, 개인강습","서핑, 액티비티, 물놀이, 중문, 색달해수욕장, 바다, 해수욕장, 강습, 체험, 클래스, 개인강습,공용주차장,현금결제,카드결제,화장실,무료 WIFI,음료대,카드결제,현금결제,,영어,,실내+실외,해양스포츠,체험,,3시간 이상",온몸으로 느끼는 짜릿한 서핑의 맛! 아름다운 중문색달해변에서 즐겁고 유쾌한 서핑 | 제주도 서귀포 중문 서핑강습
CNTS_300000000013568,월정뷰게스트하우스 코난비치스노쿨링대여점 ,제주특별자치도 제주시 구좌읍 월정리 554 2층 월정뷰게스트하우스 코난비치스노쿨링대여점,33.5569107,126.7943496,"스노쿨링, 물놀이, 액티비티, 코난비치, 코난해변, 해수욕장, 게스트하우스, 월정리, 대여점, 체험","스노쿨링, 물놀이, 액티비티, 코난비치, 코난해변, 해수욕장, 게스트하우스, 월정리, 대여점, 체험,공용주차장,현금결제,카드결제,화장실,무료 WIFI,유도 및 안내시설,경보 및 피난시설,카드결제,현금결제",제주 코난비치 스노쿨링대여 각종물놀이용품 대여점 온수샤워장 각종 스노쿨링포인트안내 제주도 스노쿨링 체험 해변까지 걸어서 10초 거리
CNTS_200000000015086,미유,제주특별자치도 제주시 한림읍 옹포리 326-3,33.4056365,126.2567624,"한림, 옹포리, 소품샵, 핸드메이드소품, 키링, 우산, 지갑, 쇼핑","한림, 옹포리, 소품샵, 핸드메이드소품, 키링, 우산, 지갑",숲속 별장처럼 꾸며진 소품 가게
CNTS_200000000014235,펫마마스푸드,제주특별자치도 서귀포시 대정읍 상모리 3882,33.2258687,126.2579469,"사골닭죽,토마토미트볼,돼지안심카레,화식,양사골,우유껌,말고기육포,꿀꿀칩,쇼핑,반려동물,반려동물동반입장,혼저옵서개,반려동물동반_기타체험","사골닭죽,토마토미트볼,돼지안심카레,화식,양사골,우유껌,말고기육포,꿀꿀칩,쇼핑,반려동물,반려동물동반입장,혼저옵서개,반려동물동반_기타체험","펫마마스푸드는 청정 제주를 담아 사료와 간식, 베이커리를 핸드메이드로 반려동물의 올바른 먹거리를 만드는 곳이다. "
CNTS_200000000010193,김서프제주,제주특별자치도 서귀포시 색달동 1992,33.2486522,126.4124374,"서핑,중문,해양스포츠,체험,수상레저,레저/체험,어트랙션","서핑, 중문, 해양스포츠,공용주차장,현금결제,카드결제,화장실,무료 WIFI,흡연구역,편의점,카드결제,현금결제,네이버예약, 네이버 스마트스토어,영어,,어려움,실외,중,,2~3시간",제주도에서 가장 아름다운 중문색달해변에서 진행되는 서핑강습! 
CNTS_000000000022277,블랑게스트하우스,제주특별자치도 서귀포시 표선면 표선리 1821-1,33.33356,126.826645,"숙소,게스트하우스,체험,편백나무펜션,조식 포함,바비큐,공공와이파이존,교통,해수욕장,독채","숙소,게스트하우스,체험,편백나무펜션,조식 포함,바비큐,공공와이파이존,교통,해수욕장,독채,화장실,무료 WIFI",표선인근이면 어디든 픽업서비스가 가능한 게스트하우스
CONT_000000000500242,벨리타 캠핑장,제주특별자치도 제주시 조천읍 중산간동로 1194,33.507736,126.69782,"야영장,캠핑장,액티비티,흐림,자연경관,체험,레저/체험,캠핑,언택트,어트랙션","야영장,캠핑장,액티비티,흐림,자연경관,체험,레저/체험,캠핑,언택트,어트랙션,공용주차장,현금결제,카드결제,화장실,무료 WIFI,흡연구역,편의점,아주 어려움",제주도 오토캠핑장 벨리타는 선진캠핑 문화를 선도한다.
CNTS_300000000015833,곱뜨락아띠 향수공방,제주특별자치도 서귀포시 안덕면 사계리 2266-1,33.2302133,126.2996522,"체험관광,청년, 서귀포, 안덕면, 사계리, 향수체험, 향수공방","체험관광,청년, 서귀포, 안덕면, 사계리, 향수체험, 향수공방,공용주차장,실내,하,1~2시간",고급스럽고 개성 넘치는 니치향수 체험
CNTS_000000000022065,백제사 템플스테이,제주시 애월읍 광령남6길 54 백제사,33.448807,126.42422,"템플스테이,실내,휴식/힐링,커플,흐림,사계절,문화관광,체험,어트랙션","템플스테이,실내,휴식/힐링,커플,흐림,사계절,문화관광,체험,어트랙션",백제사에서의 템플 스테이 프로그램을 통하여 자신을 돌아볼 수 있는 시간이 된다.
CNTS_000000000022007,풋감마을 소길리 농어촌체험마을,애월읍 소길리 650-1,33.440056,126.380005,"체험관광,친구,커플,흐림,사계절,체험,도보여행,도보,마을산책,마을관광,어트랙션","체험관광,친구,커플,흐림,사계절,체험,도보여행,도보,마을산책,마을관광,어트랙션",옛 '올레'길이 그대로 살아 숨쉬는 마을
CNTS_200000000008913,나틸다,제주특별자치도 제주시 아라일동 6093-2,33.4752059,126.5427649,"친구,체험관광,청년,실내관광지,체험,어트랙션,무장애관광","친구,체험관광,청년,공용주차장,현금결제,카드결제,화장실,무료 WIFI,음료대,카드결제,현금결제,,영어,중국어,,단독접근가능,쉬움,실내,하,체험,드레스카페에서 사진찍고 놀기,2~3시간","가장 예쁜 오늘, 지금 「나틸다」
제주시에 있는 의상카페"
CNTS_200000000012263,추억을 빚는 <번영로 특별한 카페들>,,,,"부모,커플,혼자,친구,아이,맑음,흐림,비.눈,경관/포토,휴식/힐링,테마공원,체험관광,드라이브,쇼핑,봄,가을,겨울,여름,일출,일몰,밤,올레,오름,해변,4.3,실내,사계절,중/장년,노년,청년,휴식/치유,포토스팟","부모,커플,혼자,친구,아이,맑음,흐림,비.눈,경관/포토,휴식/힐링,테마공원,체험관광,드라이브,쇼핑,봄,가을,겨울,여름,일출,일몰,밤,올레,오름,해변,4.3,실내,사계절,중/장년,노년,청년,휴식/치유","최근 제주를 상징하는 삼다(三多)의 의미가 바뀌고 있다. 바람과 돌과 여자가 많다고 하여 붙여진 이름이, 요즘은 카페와 숙박집, 자동차가 많다는 뜻에서 삼다라고 불린다는 것이다. 물론 우스갯소리로 하는 얘기지만 그만큼 제주여행에서 최근의 뉴(New)삼다는 빼놓을 수 없는 요소가 되었다.오늘날 제주에는 다양한 테마를 가진 카페와 공원들이 많다. 오늘은 그중에서도 즐거운 추억을 얻을 수 있는, 개성만점의 뉴(New)삼다 공원·카페들을 모아보았다. 지금부터 제주의 눈과 코, 입을 행복하게 할 특별한 여행을 떠나보도록 하자. "
CNTS_200000000009151,"로컬투어 마을참견 8 <구좌가 당근 마을이 된 사연,  한태호 삼촌이 들려주는 평대리 이야기>",,,,"체험관광,겨울,가을,중/장년","체험관광,겨울,가을,중/장년","구좌읍은 명실상부한 전국구 당근 주산지다. 하지만 1970년대, 평대리의 어느 퇴역 군인이 시험 삼아 지어본 당근 농사가 ‘구좌 당근’의 시초였다는 사실을 아는 사람은 많지 않다. 평대리 토박이 농부 한태호 삼촌이 들려주는 평대 마을 농사 이야기. "
CNTS_200000000008041,제주i,제주특별자치도 서귀포시 성산읍 성산리 296-10,33.4637648,126.9356511,"기념품,소품,쇼핑,관광기념품,상점/상가","기념품, 소품","성산읍에 위치한 핸드메이드 소품점
"
CNTS_000000000022068,백제사,제주시 애월읍 광령남6길 54 백제사,33.448807,126.42422,"실내,문화유적지,흐림,맑음,사계절,문화관광,역사유적,어트랙션","실내,문화유적지,흐림,맑음,사계절,문화관광,역사유적,어트랙션",자연친화적인 한국의 사찰문화를 체험할 수 있는 도량이다.
CNTS_000000000018119,제주오다,제주특별자치도 제주시 용담삼동 2396,33.51774,126.4878545,"펜션,숙소,휴양펜션,자연경관,해변,공항,해수욕장,공공와이파이존,체험,가족,단체여행객,해안도로,어린이놀이터,무장애관광","펜션,숙소,휴양펜션,자연경관,해변,공항,해수욕장,공공와이파이존,체험,가족,단체여행객,해안도로,어린이놀이터,무장애관광,공용주차장,현금결제,카드결제,화장실,무료 WIFI,음료대,유도 및 안내시설,경보 및 피난시설,단차없음",바다를 가득 채우는 객실창이 있는 레지던스 호텔형 펜션
CNTS_300000000013507,옛 전통 봄꽃으로 물들다,제주특별자치도 서귀포시 표선면 표선리 40-1,33.3225098,126.8418176,"제주여행, 5월제주축제, 한복체험, 제주민속촌, 민속촌","제주여행, 5월제주축제, 한복체험, 제주민속촌, 민속촌","제주의 봄꽃과 전통을 함께 즐기는 가족 맞춤형 체험 축제, ‘옛 전통, 봄꽃으로 물들다’!"
CNTS_300000000012721,쿠킹독,제주특별자치도 제주시 노형동 722-2,33.4823436,126.4858596,"반려동물수제간식,반려동물,반려동물동반입장,혼저옵서개,반려동물동반_기타체험","반려동물수제간식,반려동물,반려동물동반입장,혼저옵서개,반려동물동반_기타체험,유도 및 안내시설,경보 및 피난시설",100% 핸드메이드 수제간식을 판매하는 이곳은 반려동물의 알레르기와 건강 등을 고려해 다양한 간식들과 케이크를 직접 만들어 판매하고 있다.
CNTS_200000000010493,제주잠수함(국제리더스클럽),제주특별자치도 제주시 조천읍 신흥리 1-11,33.5445942,126.6518287,"액티비티,부모,아이,신흥,체험,레저/체험,어린이,수상레저,어트랙션","액티비티,부모,아이,신흥,체험,레저/체험,어린이,수상레저,어트랙션,공용주차장,현금결제,카드결제,화장실,흡연구역,유도 및 안내시설,실외","에메랄드빛 제주 바다에서 즐기는 해양레포츠 테마파크 국제리더스클럽!
"
CNTS_000000000019611,로그밸리,제주특별자치도 제주시 애월읍 소길리 966-1,33.4169117,126.3756972,"휴식,숙소,펜션,휴양펜션,독채,어린이동물농장,바비큐,체험,승마체험,어린이,가족","휴식 ,공용주차장,현금결제,카드결제,화장실,무료 WIFI,흡연구역,음료대,유도 및 안내시설,경보 및 피난시설,아주 어려움",무료승마체험을 할 수 있는 통나무집 펜션
CNTS_300000000013952,알레스팜,제주특별자치도 제주시 애월읍 곽지리 382-1,33.43215,126.3206576,"농장, 액션페인팅, 귤따기체험, 포토존, 체험","농장, 액션페인팅, 귤따기체험, 포토존, 체험,현금결제,카드결제,화장실,공용주차장,현금결제,카드결제",다양한 체험 프로그램이 가득한 제주 감귤밭 농장
CNTS_200000000015068,마르지엄,제주특별자치도 서귀포시 남원읍 태흥리 1231-1,33.2828962,126.7326726,"서귀포, 남원, 소품샵, 도자기, 화분, 갤러리","서귀포, 남원, 소품샵, 도자기, 화분, 갤러리",유니크한 소품과 풍경화를 만나는 공간
CNTS_200000000015168,감성을담다,제주특별자치도 제주시 구좌읍 평대리 579-8,33.5300084,126.8438361,"구좌읍, 평대리, 향수만들기, 룸스프레이, 향기체험, 체험","구좌읍, 평대리, 향수만들기, 룸스프레이, 향기체험, 체험,실내,하,1~2시간",인공적이지 않아 매력적인 아로마향기
CNTS_200000000015166,덕천곤충영농조합,제주특별자치도 제주시 구좌읍 덕천리 1252,33.4828732,126.7482507,"구좌읍, 덕천리, 곤충, 파충류, 체험, 이색체험, 아이","구좌읍, 덕천리, 곤충, 파충류, 체험, 이색체험, 아이,실내,하,1~2시간",제주에 살고 있는 다양한 곤충과 파충류를 만나볼 수 있는 곳
CNTS_300000000013522,샤카다이브,제주특별자치도 서귀포시 남원읍 하례리 343-1 1,33.3252261,126.5961931,"해양스포츠, 스쿠버다이빙, 체험다이빙, 야간다이빙, 자격증코스, 펀다이빙","해양스포츠, 스쿠버다이빙, 체험다이빙, 야간다이빙, 자격증코스, 펀다이빙,공용주차장,현금결제,카드결제,화장실,무료 WIFI,흡연구역,카드결제,현금결제,,영어,,아주 어려움,실내+실외,중,해양스포츠,체험,스쿠버다이빙 체험,2~3시간",제주 서귀포시에 위치한 다이빙샵 샤카다이브 입니다
CNTS_000000000022711,다시방프로젝트,제주특별자치도 제주시 조천읍 북촌리 740-16,33.5467278,126.6986061,"공방,기념품,쇼핑,관광기념품,상점/상가","공방,기념품,","금속공예공방, 직접만드는 래터링반지"
CNTS_000000000019886,원앙카라반캠핑장앤야영장,제주특별자치도 서귀포시 상효동 1460,33.306381,126.5843885,"야영장,캠핑장,액티비티,친구,맑음,여름,체험,레저/체험,캠핑,언택트,어트랙션","야영장,캠핑장,액티비티,친구,맑음,여름",공기좋은 곳에 위치한 조용한 캠핑장
CNTS_200000000013392,꼭 경험해야 할 제주명품 - 제주의 7대 체험거리,,,,"체험,제주명품42,농장,고사리,감귤,도보여행,도보,올레,한라산,오름,숲길,수상레저,레저/체험,해안도로,섬속의섬,승마",체험,"제주 7대명품은 관광과 1차산업, 3차산업 등을 연계한 제주 비경과 특산물, 향토음식, 체험거리, 아름다운 도로, 아름다운 건축물 등 6개의 분야로 나뉜다. 각 분야별로 설문조사와 학계 및 전문가의 추천심의 등을 거쳐 선정한 명품들로, 제주를 찾는 사람이라면 꼭 경함해야 할 42가지의 특별함으로 기억될 것이다. "
CNTS_300000000013245,제주 원데이클래스들을 들으며 내가 잘하는 부캐 찾기!,,,,#제주청년서포터즈 #제주청년크리에이터 #청년서포터즈 #제주원데이클래스,#제주청년서포터즈 #제주청년크리에이터 #청년서포터즈 #제주원데이클래스,"안녕하세요~! 제주 살고 있는 불도그 입니다! 추석연휴 잘 보내셨나요??? ㅎㅎㅎ 연휴가 지나고 나니 9월이 벌써 끝나가는 것 같아요!!!! 저희는 이번 9월이 정말 짧게 느껴지는데, 그 중 제주에 특색있다는 원데이클래스들을 들으러 다니며 저희가 가장 재밌어하고 잘~~ 하는 부캐를 찾고 있습니다!!!!!! 이번 원데이클래스는 총 3군데로 플라워클래스, 사격, 요가 분야로 체험을 해봤는데요!!!! 과연 저희는 어떤 분야를 제일 재밌어하고 잘했을까요??? ㅎㅎㅎㅎ 끝까지 많은 기대 해주세요~~!!! 지금부터 저희의 잘 하는 것 찾기가 시작됩니다!!!"
CONT_000000000500994,와락 게스트하우스,제주특별자치도 제주시 구좌읍 평대리 3346-10,33.5275,126.85471,"게스트하우스,숙소,민박,해수욕장,공공와이파이존,조식 포함,체험,가족,단체여행객,자연경관,해변","게스트하우스,공용주차장,현금결제,카드결제,화장실,무료 WIFI,음료대,유도 및 안내시설,경보 및 피난시설,아주 어려움",제주시 구좌읍 평대리와 세화리 경계에 위치한 게스트하우스
CNTS_200000000015013,무드,제주특별자치도 제주시 용담일동 237-5 2층,33.5077651,126.5152691,"제주시내, 용담, 소품샵, 캔들, 인센스, 빈티지, 소품","제주시내, 용담, 소품샵, 캔들, 인센스, 빈티지, 소품",따뜻한 분위기의 우드톤 인테리어가 맞이해주는 소품샵
CNTS_000000000019128,제주쉼표,제주특별자치도 제주시 용담삼동 2319-6,33.5194453,126.493001,"휴식,숙소,휴양펜션,펜션,가족,공공와이파이존,해수욕장,해변,체험,자연경관","휴식 ,공용주차장,현금결제,카드결제,화장실,무료 WIFI,흡연구역,편의점,유도 및 안내시설,경보 및 피난시설,아주 어려움","바쁜 세상 걸음을 멈추고 따뜻한 햇살, 포근한 휴식을 느낄 수 있는 곳"
CNTS_300000000016111,아트진,제주특별자치도 서귀포시 강정동 161-1 4층 아트진,33.2536072,126.5086306,"체험, 원데이클래스, 보태니컬아트, 그림","체험, 원데이클래스, 보태니컬아트, 그림,공용주차장,현금결제,카드결제,화장실,무료 WIFI,음료대,카드결제,현금결제,,,,1~2시간",색연필 보태니컬아트 화실
CNTS_000000000020256,엄블랑펜션,제주특별자치도 서귀포시 안덕면 사계리 3562,33.2209524,126.2923419,"휴식,숙소,휴양펜션,펜션,바비큐,공공와이파이존,온돌방,해안도로,지질트레일","휴식,숙소,휴양펜션,펜션,바비큐,공공와이파이존,온돌방,해안도로,지질트레일,공용주차장,현금결제,카드결제,화장실,무료 WIFI,유도 및 안내시설,경보 및 피난시설,아주 어려움,지오브랜드",지질의 특성을 체험할 수 있도록 하는 지질테마 숙소인 지오하우스 엄블랑펜션
CNTS_200000000014326,개인공간,제주특별자치도 제주시 도련이동 542-1,33.515922,126.5890592,"애견미용실,애견유치원,애견호텔,반려동물,반려동물동반입장,혼저옵서개,반려동물동반_기타체험","애견미용실,애견유치원,애견호텔,반려동물,반려동물동반입장,혼저옵서개,반려동물동반_기타체험,공용주차장,화장실,무료 WIFI","개인공간은 가위컷 전문으로하는 반려견미용과, 반려견유치원, 반려견호텔을 운영하는 곳이다. "
CNTS_300000000013307,제주스카이랩,제주특별자치도 제주시 노형동 3278-10 2401호,33.4735526,126.4627945,제주패러글라이딩,"제주패러글라이딩,공용주차장,현금결제,카드결제,화장실,무료 WIFI,카드결제,현금결제,계좌이체 가능합니다,영어,일본어,,어려움,실외,하,,1시간 미만",2인승 패러글라이딩 체험과 패러글라이딩 교육을 전문으로 진행하는 항공스포츠 업체 입니다. 
CNTS_200000000010135,애월스쿠버다이빙스쿨,제주특별자치도 제주시 애월읍 애월리 1737-6,33.4661668,126.3216797,"애월,스쿠버다이빙,다이빙,마린스포츠,체험,레저/체험,수상레저,어트랙션","애월, 스쿠버다이빙, 다이빙, 마린스포츠,현금결제,카드결제,화장실,무료 WIFI,음료대,현금결제,,,쉬움,실내+실외,하,해양스포츠,체험,스쿠버다이,2~3시간","애월스쿠버 체험다이빙, 초급자격증부터 고급과정까지 교육"
CNTS_200000000015413,제주용암수 홍보관,제주특별자치도 제주시 구좌읍 한동리 4849-18 오리온 제주용암수,33.5409551,126.8137869,"체험관광,미술/박물관,전시와 행사,용암해수,제주용암수 홍보관,전시관","체험관광,미술/박물관,전시와 행사,용암해수,제주용암수 홍보관,전시관,공용주차장,화장실,경보 및 피난시설,,,어려움,실내,하,,1~2시간","40만년간 제주가 간직한 수자원 '용암해수'의 탄생부터, 우리가 마시는 물이 되는 과정을 견학할 수 있는 홍보관"
CNTS_200000000015204,삼다수목장,제주특별자치도 제주시 조천읍 교래리 산 119-1,33.4180631,126.6534847,"조천, 교래리, 승마, 외승, 이색체험","조천, 교래리, 승마, 외승, 이색체험,실외,중,1시간 미만",푸른 초원을 거닐며 즐기는 승마체험
CNTS_200000000014170,조셉마켓,제주특별자치도 제주시 삼양일동 1541-5 1층,33.530607,126.5911287,"음식,카페,디저트,치즈케이크,바스크치즈케이크,블랙티,자스민티,상양해수욕장","음식,카페,디저트,치즈케이크,바스크치즈케이크,블랙티,자스민티,상양해수욕장,,,쉬움,바스크 치즈케이크 ,어린이 출입가능,,가능","코리안/아메리칸 파티쉐가 운영하는 공방형 디저트 전문삽이며, 6가지 바스크 치즈케이크, 샤브레 쿠키 트리오 등 시즌마다 바뀌는 다양한 디저트 메뉴를 즐길수있는 디저트 전문삽"
CNTS_000000000020923,무릉도원마을,제주특별자치도 서귀포시 대정읍 무릉리 630-4,33.2748,126.23539,"부모,커플,혼자,친구,아이,체험관광,마을산책,마을관광,어린이,어트랙션","부모,커플,혼자,친구,아이,체험관광,공용주차장",제주의 자연과 문화를 직접 체험할 수 있는 제주도의 무릉도원
CNTS_200000000010334,관음사 야영장,제주특별자치도 제주시 오등동 산 180-3,33.4216211,126.5502658,"캠핑,관음사,한라산,자연경관,체험,캠핑장,언택트,어트랙션","캠핑, 관음사, 한라산",한라산 관음사야영장은 제주시 북쪽 아라동에 위치하여 제주시 도심 인근에서 캠핑을 즐길 수 있는 곳이다. 
CNTS_300000000013737,와그라운드,제주특별자치도 제주시 조천읍 함덕리 2299,33.5275814,126.6580625,"함덕캠프장, 조천수영장, 조천캠프장, 에어바운스, 불멍, 캠핑체험","함덕캠프장, 조천수영장, 조천캠프장, 에어바운스, 불멍, 캠핑체험,공용주차장,현금결제,카드결제,화장실,카드결제,현금결제","와그라운드 제주도 함덕 <<초대형 에어바운스>>,수영, 캠핑체험, 불멍, 바베큐, 놀이터를 한 곳에서 즐기는 곳으로 잠은 집에서, 캠핑장 아니고 캠크닉장입니다."
CNTS_000000000022002,아홉굿마을 낙천리 농어촌체험마을,한경면 낙천리 1916,33.499622,126.53119,"체험관광,아이,사계절,체험,마을산책,마을관광,어린이,어트랙션","체험관광,아이,사계절,체험,마을산책,마을관광,어린이,어트랙션,화장실",주민들이 직접 만든 1000개의 의자가 있는 마을
CNTS_000000000022121,황우럭만화천국사회적협동조합,제주특별자치도 제주시 한림읍 한림리 1055,33.41427,126.26667,"친구,아이,체험관광,어린이,어트랙션","친구,아이,체험관광",황우럭 만화카페는 故양병윤 화백의 생가를 카페로 새롭게 재구성한 장소입니다.
CNTS_200000000012846,옛 제주 사람들의 생생한 이야기 <제주 전통 여행>,,,,"부모,커플,혼자,친구,아이,테마공원,체험관광,미술/박물관,문화유적지,사계절","부모,커플,혼자,친구,아이,테마공원,체험관광,미술/박물관,문화유적지,사계절","제주의 민속 문화를 간직하고 있는 제주민속촌은 제주에서 가장 제주다운 곳이라 할 수 있다. 과거의 모습을 유지하며 전통과 역사를 사람들에게 전해주는 장소들.  옛 선조들이 남긴 지혜는 현대인에도 감탄이 절로 나는 멋과 힘이 있다. 다가오는 설에는 가족과 함께 옛 제주인의 삶의 터전을 둘러보며 제주의 문화와 역사를 이해하는 시간을 가져보자.

* 2022년 설 연휴 기간 20만명이 제주를 방문할 것으로 예상됩니다.  오미크론 변이 확산이 역대 최다 신규 확진자를 기록하고 있습니다. 모두의 안전과 건강을 위해 개인 위생 수칙을 준수해 주시기 바랍니다."
CNTS_200000000015130,월정스캔들,제주특별자치도 제주시 조천읍 와산리 1559-1 209동 1층 (스위스마을),33.5564165,126.8013584,"구좌읍, 행원리, 소품샵, 캔들, 레진아트","구좌읍, 행원리, 소품샵, 캔들, 레진아트",은은한 제주의 향기를 품은 캔들 공방
CNTS_300000000015878,잠수타기다이브클럽,제주특별자치도 서귀포시 서귀동 655-12,33.2419329,126.5616311,"서귀포시내, 스쿠버다이빙, 이색체험","서귀포시내, 스쿠버다이빙, 이색체험,실외,중,2~3시간",다양한 체험다이빙을 즐길 수 있는 곳
CNTS_300000000013763,벌스데이모모,제주특별자치도 제주시 삼도이동 847-2,33.5126227,126.5198173,"제주소품샵, 제주선물, 기념품, 제주여행코스, 라이프스타일, 커스텀, 체험","제주소품샵, 제주선물, 기념품, 제주여행코스, 라이프스타일, 커스텀, 체험,현금결제,카드결제,현금결제,카드결제",커스텀 체험이 가능한 제주의 소품샵
CNTS_300000000015856,범서프,제주특별자치도 제주시 삼양일동 1569-25,33.5255346,126.5867411,"제주시내, 삼양해수욕장, 서핑","제주시내, 삼양해수욕장, 서핑,실외,중,3시간 이상",입문자도 즐길 수 있는 서핑 체험
CNTS_300000000012730,펫소풍,제주특별자치도 서귀포시 안덕면 서광리 2188-1,33.2829531,126.3048018,"반려견호텔링,반려견유치원,반려동물,반려동물동반입장,혼저옵서개,반려동물동반_기타체험","반려견호텔링,반려견유치원,반려동물,반려동물동반입장,혼저옵서개,반려동물동반_기타체험,공용주차장,무료 WIFI",산방산 근처에 위치한 펫소풍은 반려동물을 위한 다양한 용품이 갖춰져 있다.
CNTS_000000000022010,조수리 농어촌체험마을,제주특별자치도 제주시 한경면 조수리,33.337276,126.22851,"체험관광,아이,흐림,사계절,마을산책,마을관광,어린이,어트랙션","체험관광,아이,흐림,사계절,마을산책,마을관광,어린이,어트랙션",조수리 농어촌체험마을
CNTS_200000000007334,마야블루,제주특별자치도 제주시 노형동 1052-27,33.4895696,126.4785925,"쇼핑,라탄,원데이클래스,관광기념품,상점/상가","쇼핑,라탄,원데이클래스,카드결제,현금결제,드림캐처, 캔들, 악세사리, 라탄 소품",마야블루는 제주 시내의 주택가 사이에 작은 간판으로 자신의 존재를 알리고 있다. 이곳은 소품 판매와 함께 공방을 운영하면서 드림캐처와 캔들 등 직접 만들어 볼 수 있는 원데이 클래스도 진행하고 있다
CNTS_300000000013906,2025 제주밭한끼 신기루맛집 체험단 모집,제주특별자치도 제주시 구좌읍 평대리 3210-4,33.4949085,126.8088834,"신기루맛집, 제주밭한끼, 신기루, 체험단, 제주체험단","신기루맛집, 제주밭한끼, 신기루, 체험단, 제주체험단",제주의 밭작물로 만든 한상차림을 직접 평가해주세요!
CNTS_200000000012869,제주 겨울과 동백꽃 <2월 광도르방 투어>,,,,"부모,커플,혼자,친구,아이,맑음,흐림,비.눈,경관/포토,체험관광,겨울","부모,커플,혼자,친구,아이,맑음,흐림,비.눈,경관/포토,체험관광,겨울","제주대학교 학생들의 아이디어로 제품화된 광도르방! 비타500이 제주 돌하르방을 만나 광도르방으로 탄생했다. 광도르방은 돌하르방의 모양과 질감을 용기 디자인에 적용하고 제주 감귤 농축액을 첨가한 제주에서만 만나 볼 수 있는 특별한 제품이다. 2022년 출시에 맞춰 2월부터 4월까지, 매월 진행되는 광도르방 이벤트를 따라 미션 여행지를 함께 가보자."
CNTS_300000000012901,"찐이야, 가장 제주다운 바이브 <럭셔리 트래블 in 제주>",,,,"제주럭셔리, 도예공방, 제주식당, 제주이색숙소, 제주풀빌라, 애월미술카페, 미술클래스","제주럭셔리, 도예공방, 제주식당, 제주이색숙소, 제주풀빌라, 애월미술카페, 미술클래스","가끔은 충동적으로 돈을 쓰고 싶을 때가 있다. 대부분 충동이라 돈을 쓰지 못한다. 럭셔리의 사전적 정의는 고급스러움이지만, 럭셔리 트래블에서의 의미는 사뭇 다르다. 하룻밤에 수십만 원하는 고급 호텔에서 호화롭게 묵거나 사치스러운 여행에서의 ‘럭셔리’가 아니라, 제주만의 독특한 분위기와, 제주에서 얻는 영감이 곧 ‘제주다운 가치’라는 뜻이다. 제주만이가지고 있는 본연의 가치, 진짜 제주다움을 만날 수 있는 ‘럭셔리 트래블인 제주’를 소개한다. 당신이 머무는 제주가 가장 제주스러운 순간이다. 매 순간을 즐기면서 열심히 누릴 수 있는 여행지를 소개한다."
CNTS_200000000015187,탐라승마장,제주특별자치도 제주시 조천읍 교래리 42-3,33.4180631,126.6534847,"조천, 교래리, 승마, 이색체험","조천, 교래리, 승마, 이색체험,실외,중,1시간 미만",온 가족이 함께 즐기는 승마체험
CNTS_300000000013003,제주 무형유산 대전,제주특별자치도 제주시 일도이동 996-1,33.5063429,126.5315162,"제주무형유산,무형유산,전통문화","제주무형유산,무형유산,전통문화",평범함을 빛나는 미래로! 제주의 무형유산을 직접 만나고 체험할 수 있는 축제
CNTS_300000000015867,아토도예공방,제주특별자치도 서귀포시 서홍동 744-3,33.2428508,126.5545379,"서귀포시내, 도자기체험, 이색체험","서귀포시내, 도자기체험, 이색체험,실내,하,1시간 미만",하나뿐인 나만의 도자기를 만드는 체험
CNTS_200000000007463,로로 요가,제주특별자치도 제주시 구좌읍 김녕리 1267-1,33.5437905,126.6688441,"친구,혼자,맑음,휴식/힐링,요가,패들요가,어트랙션","친구,혼자,맑음,휴식/힐링,요가,패들요가,어트랙션,실외,체험,패들보드, 요가,1~2시간",제주의 푸른 바다 위에서 즐기는 패들보드 요가를 만나보자. 누구나 한 번쯤은 찰랑거리는 맑은 물결 사이로 흔들림 없이 요가 동작을 선보이는 패들보드 요가를 본 적이 있을 것이다.
CNTS_300000000012769,지구별 MBTI여행자 <오감만족 제주 체험 여행>,,,,"MBTI제주여행, 오감만족제주여행, 감각형제주여행","MBTI제주여행, 오감만족제주여행, 감각형제주여행",경험과 오감을 바탕으로 삶을 살아가는 S(감각형)을 위한 여행. 여행에서도 상상보다는 오감이 만족되어야 직성이 풀린다면 제주 서부의 탁트인 에메랄드빛 바다를 바라보며 경험할 수 있는 다양한 체험형 코스를 추천한다. 현실의 실제 경험을 중시하는 감각형 여행자를 위해 지금 이 순간에 몰입할 수 있는 오감만족 경험 위주의 다양한 여행지가 마련되어있다.
CNTS_300000000013017,제10회 대정암반수마농박람회,제주특별자치도 서귀포시 대정읍 하모리 2136-4,33.2159677,126.2527911,"서귀포시축제,마늘축제,대정읍마늘,마늘박람회,마늘직거래,마늘음식,마늘체험","서귀포시축제,마늘축제,대정읍마늘,마늘박람회,마늘직거래,마늘음식,마늘체험",대정읍 마늘 재배농가가 직접 개최하는 제10회 대정암반수마농박람회
CNTS_200000000014977,책은 선물,제주특별자치도 제주시 한경면 신창리 337-3,33.3491801,126.1820167,"한경면, 신창리, 서점, 책방","한경면, 신창리, 서점, 책방",일일 서점지기 체험이 가능한 작은 서점
CNTS_200000000012156,[같이가치 제주여행] 26. 손끝으로 느끼는 안덕의 보물,,,,"부모,커플,혼자,친구,아이,같이가치,무장애여행","부모,커플,혼자,친구,아이","산방산은 옛 전설속에 한라산의 정상에 해당됐다는 말이 있다. 설문대할망이 화가 나서 던져버렸다는 산방산은 한라산 못지않는 영험함을 내뿜고 있다. 구름을 품어 안은 산방산과 그 밑에 펼쳐진 아름다운 하모해변과 마라도마저도 가까이 느껴지는 송악산의 자연 풍광, 그리고 추사 선생의 뛰어난 업적까지 더해져 안덕은 제주에서도 가장 특색 있는 마을이 아닐까. 이 곳 안덕에서의 여행은 바다와 기암괴석을 손끝으로 만져보고 추사 선생의 붓글씨까지 체험해볼 수 있는 손끝으로 느껴볼 수 있는 귀중한 시간이 될 것이다.
"
CNTS_200000000014308,개미남,제주특별자치도 제주시 아라일동 2408-18,33.482499,126.5380588,"반려동물,반려동물동반입장,혼저옵서개,반려동물동반_기타체험,애견미용실","반려동물,반려동물동반입장,혼저옵서개,반려동물동반_기타체험,애견미용실,공용주차장,화장실,무료 WIFI","개미남은 애견미용, 가위컷, 스타일컷, 노견 미용을 전문으로 하는 곳이다."
CNTS_000000000019892,스쿠버스쿨,제주특별자치도 제주시 도두이동 1669-3,33.5089684,126.4776764,"커플,혼자,친구,체험관광,액티비티,해양스포츠,스쿠버다이빙,체험,레저/체험,waterleisure,수상레저,어트랙션","커플,혼자,친구,체험관광,액티비티,해양스포츠,스쿠버다이빙,공용주차장,현금결제,카드결제,화장실","탐험, 도전! 도시를 떠나 자신을 찾아 도전하라"
CNTS_300000000013407,우리의 청춘 이제부터 시작이다 -(R)omance의 제주여행 이야기-⑥,,,,#액티브시니어 #힐링여행 #부부여행 #연인 #로맨틱여행 #리마인드 #신혼여행 #김녕해녀체험 #혼인지 #회수다옥 #채우다 #다이닝 #중문면세점 #루나폴 #야경 #아라고나이트 #한라산아래첫마을 #제주바당한그릇 #무지개요트 #카페901 #명상 #도두봉 #키세스존,#액티브시니어 #힐링여행 #부부여행 #연인 #로맨틱여행 #리마인드 #신혼여행 #김녕해녀체험 #혼인지 #회수다옥 #채우다 #다이닝 #중문면세점 #루나폴 #야경 #아라고나이트 #한라산아래첫마을 #제주바당한그릇 #무지개요트 #카페901 #명상 #도두봉 #키세스존,"6인 'senior’의 제주여행 이야기는 인생의 제2막을 맞이한 6명이 제주도에서 발견한 가치와 경험을 담고 있다. 혼자, 싱글친구들과의 제주 여행을 통해 보내며 인생의 새로운 도전을 해보자"
CNTS_200000000014211,제주댕댕스푼,제주특별자치도 제주시 구좌읍 동복리 1647,33.5535128,126.7068285,"청정재료,닭고기,말고기,돼지고기,양갱,음식,반려동물,반려동물동반입장,혼저옵서개,반려동물동반_기타체험","청정재료,닭고기,말고기,돼지고기,양갱,음식,반려동물,반려동물동반입장,혼저옵서개,반려동물동반_기타체험,공용주차장,화장실,무료 WIFI,흡연구역,어린이 출입가능,가능",제주댕댕스푼은 구좌읍 평대리에 위치한 반려동물 수제간식점이다.
CNTS_300000000012719,슈몽슈몽,제주특별자치도 제주시 외도일동 642-7,33.4848464,126.4296413,"애견미용실,반려동물,반려동물동반입장,혼저옵서개,반려동물동반_기타체험","애견미용실,반려동물,반려동물동반입장,혼저옵서개,반려동물동반_기타체험,공용주차장,화장실,무료 WIFI,유도 및 안내시설",반려동물의 안전과 함께 스트레스를 최소화할 수 있도록 최선을 다하는 반려동물 미용샵이다.
CNTS_200000000007333,더솜라탄,제주특별자치도 제주시 노형동 3808-13,33.48309800000001,126.4772312,"쇼핑,라탄,원데이클래스,관광기념품,상점/상가","쇼핑,라탄,원데이클래스,라탄 소품","제주 시내에 있는 더솜라탄은 잔잔한 분위기를 가지고 있는 가게이다. 공방을 함께 운영하고 있어 라탄을 직접 배우기에도 알맞다. 8월부터는 다양한 코스의 수업도 진행하는데, 라탄을 처음 접하는 사람들을 위한 초급반부터 중급반까지 자신의 수준에 맞는 라탄 수업을 들을 수 있다."
CNTS_000000000021864,미앤제주,제주특별자치도 제주시 한림읍 금악리 산 30-12,33.34772,126.35681,"특산품,공방,기념품,쇼핑,관광기념품,상점/상가","특산품,공방,기념품,쇼핑,관광기념품,상점/상가",화산석과 제주의 향을 이용하여 나만의 디자인 아이템을 만들 수 있는 곳
CNTS_300000000013440,멍쿡 펫아카데미,제주특별자치도 제주시 노형동 82-2 103호 멍쿡,33.4730073,126.485877,"부모,커플,체험관광,반려동물동반_기타체험,펫아카데미","부모,커플,체험관광,반려동물동반_기타체험,펫아카데미,공용주차장,현금결제,카드결제,화장실,무료 WIFI,카드결제,현금결제,,,어려움,실내+실외,하,,1~2시간",제주 유일한 펫푸드 아카데미
CNTS_000000000019613,제주카약,제주특별자치도 제주시 조천읍 함덕리 207-1,33.5437998,126.6739948,"액티비티,커플,맑음,체험,레저/체험,수상레저,어트랙션","액티비티,커플,맑음",아름다운 제주 해안의 아름다움을 카약으로 만끽하는 제주카약
CNTS_200000000014303,봉구의간식,제주특별자치도 제주시 애월읍 애월리 1576-1,33.4645163,126.3191719,"반려동물, 반려동물동반입장, 혼저옵서개, 반려동물동반_기타체험","반려동물, 반려동물동반입장, 혼저옵서개, 반려동물동반_기타체험,공용주차장",봉구의간식은 첨가물을 넣지 않은 천연 수제간식 전문점이다.
CNTS_200000000015408,개떼목장,제주특별자치도 서귀포시 안덕면 덕수리 1513-1 ,33.27919070000001,126.3177445,"개떼목장,애견카페,카페,반려동물,반려동물동반입장,혼저옵서개,반려동물동반_기타체험","개떼목장,애견카페,카페,반려동물,반려동물동반입장,혼저옵서개,반려동물동반_기타체험,공용주차장,현금결제,카드결제,화장실,무료 WIFI,흡연구역,음료대,유도 및 안내시설,,영어,중국어,,어려움,","댕댕이들이 마음껏 뛰어 놀수 있는 넓은 운동장과 카페, 반려견과 함께 여유를 만끽할 수 있는 공간 개떼목장"
CNTS_200000000010937,"바다에는 옥돔, 땅에는 감귤이 가득한 마을 <태흥리>",,,,"부모,커플,혼자,친구,아이,맑음,경관/포토,휴식/힐링,사계절,청년,중/장년,노년,휴식/치유,포토스팟,도보,도보여행,마을관광,마을산책","부모,커플,혼자,친구,아이,맑음,경관/포토,휴식/힐링,사계절,청년,중/장년,노년,휴식/치유","바닷가가 아름다운 마을 태흥리. 해안도로를 따라 산책을 하며 힐링을 한다. 옥돔이 유명해 옥돔정식을 먹어보았다. 오후 1시가 되면 호루라기 소리와 함께 옥돔경매가 시작된다. 그날그날 조황에 따라 옥돔의 가격이 차이가 난다고 한다. 동네 분들도 옥돔을 사러 왔다. 옥돔 경매가 끝난 뒤 중개인에게 옥돔을 구입할 수 있다. 제일 큰 옥돔을 사서 제사상에 올린다고 한다.
옥돔 경매가 끝나고 마을을 둘러보니 귤밭이 많다. 바닷가는 어업으로 위쪽으로는 온통 귤밭이다. 한라산 아래에 있어 일조량도 좋아 귤맛이 좋은 곳이기도 하다. 귤밭에서 귤따기 체험도 하고 귤을 택배로 보낼 수도 있다."
CNTS_200000000014995,제주이야기용두암점,제주특별자치도 제주시 용담삼동 1020-5,33.51693789999999,126.5031087,"제주시내, 용담, 기념품샵, 화장품, 잡화","제주시내, 용담, 기념품샵, 화장품, 잡화",나만의 화장품을 만들어볼 수 있는 화장품 공방
CNTS_300000000013529,세계 환경의 날 기념행사 '2025 환경 한마당 축제',제주특별자치도 서귀포시 중문동 2700,33.241166,126.4242083,"세계환경의날, 플라스틱오염종식, 환경한마당축제, 제주여행, 제주축제, 제주체험 ","세계환경의날, 플라스틱오염종식, 환경한마당축제, 제주여행, 제주축제, 제주체험 ","다함께! 플라스틱 없-섬, 제주 '2025 환경 한 마당 축제'에 여러분을 초대합니다."
CNTS_000000000022788,"제주 마을 구석구석을 말하다 <제주 마을여행 활동가, 삼춘마을 만들기 프로젝트>",,0.0,0.0,"마을,동굴,해녀,오름,체험관광,문화유적지,사계절","마을,동굴,해녀,오름,체험관광,문화유적지,사계절","제주 마을여행 활동가, 삼춘PD를 지원하여 마을 관광 자원 조사와 지역 진단, 주민과의 소통을 기반으로 실직적인 마을 관광 활성화 사업을 발굴하고 주민들의 사업화를 지원하여 읍.면 마을 간 연계성을 강화하도록 하는 삼춘마을 만들기 프로젝트로 함께 향해보자"
CONT_000000000500286,산방산 랜드,제주특별자치도 서귀포시 안덕면 사계남로216번길 24-32,33.233696,126.311775,"액티비티,친구,커플,체험,레저/체험,어트랙션","액티비티,친구,커플,공용주차장,현금결제,카드결제,화장실,무료 WIFI,편의점,음료대,유도 및 안내시설,경보 및 피난시설,아주 어려움",웅장하고 신비로운 산방산을 배경으로 우리나라에서 가장 높게 올라가는 짜릿한 바이킹을 즐거보세요
CNTS_200000000007466,썬앤문리조트,제주특별자치도 서귀포시 안덕면 사계리 2166-3,33.227378,126.3011099,"펜션,숙소,리조트,휴양콘도,수영장,바비큐,오션뷰호텔","펜션,공용주차장,현금결제,카드결제,화장실,카드결제,현금결제,무료제공,전체금연,풀장,인터넷,바베큐장,유아침대,유아욕조,유아의자,유아용 변기커버",썬앤문 리조트는 제주도 사계 해변 근처에 자리 잡고 있다. 이곳은 제주 최초의 천연리조트로 천연염색의 장인이 지은 공간으로도 유명하다. 현무암으로 둘러싸인 외관과 천연소재를 사용한 이불로 건강한 리조트의 느낌을 준다.
CNTS_300000000012740,라이프동물병원,제주특별자치도 제주시 노형동 3794-6,33.4826575,126.4760161,"반려동물병원,반려동물,반려동물동반입장,혼저옵서개,반려동물동반_기타체험","반려동물병원,반려동물,반려동물동반입장,혼저옵서개,반려동물동반_기타체험,공용주차장,화장실,무료 WIFI,유도 및 안내시설,경보 및 피난시설",라이프동물병원은 제주시 노형동 주민센터 맞은 편에 위치한 병원이다.
CNTS_200000000007659,푸른콩 방주영농조합법인,제주특별자치도 서귀포시 중산간서로 740(중문동),33.2632854,126.4361834,"체험관광,휴식/치유,6차산업,체험,어트랙션","체험관광,휴식/치유,6차산업,체험,어트랙션","제주 고유 식재료 ‘푸른 콩’으로 만드는 된장과 간장, 고추장"
CNTS_000000000021482,파밀리아호텔,제주특별자치도 서귀포시 대포동 2079,33.24088,126.43825,"호텔,숙소,중문관광단지,오션뷰호텔,자연경관,레저/체험,조식,비즈니스센터,주차장,무장애관광","호텔,숙소,중문관광단지,오션뷰호텔,자연경관,레저/체험,조식,비즈니스센터,주차장,공용주차장,화장실,엘리베이터,단독접근가능,단차없음,승강기,장애인 전용 주차장,어려움","가족과 함께 머물고 싶은 곳, 파밀리아"
CNTS_000000000018570,우도보물섬레져,제주특별자치도 제주시 우도면 연평리 2427-3,33.508338,126.9441293,"액티비티,체험,레저/체험,수상레저,어트랙션","액티비티,체험,레저/체험,수상레저,어트랙션,현금결제,편의점","ATV, 스쿠터, 전기자전거 이용 가능"
CNTS_200000000015081,바다상점,제주특별자치도 제주시 한림읍 협재리 1740-2,33.3947961,126.2415901,"한림, 협재, 소품샵, 핸드메이드소품, 티코스터, 드림캐쳐","한림, 협재, 소품샵, 핸드메이드소품, 티코스터, 드림캐쳐",협재바다를 닮은 작은 소품 가게
CNTS_200000000015154,올레바당체험마을,제주특별자치도 제주시 한림읍 수원리 724-4,33.4254747,126.2642096,"한림, 테우낚시, 이색체험","한림, 테우낚시, 이색체험,실외,하,1~2시간",어린이도 쉽게 즐기는 바다낚시 체험장
CNTS_200000000013509,찬란한 제주의 여름을 즐기는 법 <해안로드트립 동부편>,,,,"커플,혼자,친구,맑음,경관/포토,휴식/힐링,체험관광,드라이브,해변,휴식/치유,여름","커플,혼자,친구,맑음,경관/포토,휴식/힐링,체험관광,드라이브,해변,휴식/치유","제주도 하면 가장 먼저 떠오르는 이미지는 푸른 바다가 아닐까. 시원하게 펼쳐지는 도로를 따라 달리는 짜릿함, 제주에 여행을 왔다면 놓치기 아쉬운 필수 코스다. 6월이면 제주 동쪽 바다는 조금 더 다채로운 색감으로 물든다. 어떻게 봐도 예쁜 제주 바다지만, 바다를 달리기만 하는 것은 조금 식상하다. 심심할 수 있는 <해안로드트립>을 더 풍성하게 만들어 줄 다양한 곳을 소개한다. 제주의 여름을 몽실몽실 아름답게 꾸며주는 수국길부터, 에메랄드빛 바다와 소박하고 느긋한 동네책방, 제주 당근 빙수를 먹을 수 있는 카페까지! 제주 동쪽 바다를 따라 다채로운 여행을 즐겨보자."
CNTS_300000000012746,한림동물병원,제주특별자치도 제주시 한림읍 동명리 1597-7,33.4097579,126.265138,"반려동물병원,반려동물,반려동물동반입장,혼저옵서개,반려동물동반_기타체험","반려동물병원,반려동물,반려동물동반입장,혼저옵서개,반려동물동반_기타체험,공용주차장,화장실,무료 WIFI",한림동물병원은 제주시 한림읍에 위치한 동물병원이다.
CNTS_200000000012453,소소한담,제주특별자치도 제주시 애월읍 신엄리 1280-16,33.4714955,126.3670126,"쇼핑,관광기념품,상점/상가","쇼핑,무료 WIFI,공용주차장,카드결제,현금결제","제주 기념품, 먹거리, 전통주, 와인, 각종 제주 소품, 커피와인 만들기 등의 구매 및 체험이 가능"
CNTS_200000000009674,"제주도의 숨겨진 재미를 찾는 <놀멍, 배우멍 제주마을체험 - 수학여행>",,,,"마을여행,테마여행,교육,마을관광","마을여행,테마여행,교육","'놀멍, 배우멍 제주마을체험'은 제주를 찾아오는 여행객으로 하여금 체험을 통해 제주의
가치를 알리고 체험객과 제주 마을지역이 공존하는 지속 가능한 제주관광 생태계를 조성 하고자 제작된 체험 가이드이다.  마을체험을 통해 진정한 제주다움을 배우고 느껴보자.
"
CNTS_200000000011999,알제이,제주특별자치도 제주시 애월읍 고성리 148,33.4379055,126.4273838,"휴식/힐링,체험관광,체험,레저/체험,수상레저,어트랙션,관광지","휴식/힐링,체험관광,체험,레저/체험,수상레저,어트랙션,관광지,,,",안녕하세요 제주도 마을체험을 진행 & 개발하는 알제이입니다
CNTS_200000000014468,그 많은 <제주의 귤>은 어디에서 왔을까,,,,"감귤,감귤박물관,면형의집,감귤체험,귤나무,만감류,문화관광","제주문화, 제주의귤, 감귤, 감귤박물관, 면형의집, 감귤체험, 귤나무, 만감류","제주에서는 매달 맛과 모양이 조금씩 다른 감귤류와 만감류가 자신의 존재를 알린다. 재래종을 개량하고, 개량종에서 새로이 교배해 육성한 품종 등 그 감귤 품종만 수십 종에 달한다. 제주에서 감귤이 처음 등장한 시기는 삼국시대로 추정되며, 요즘 맛보는 감귤에 오랜 세월이 다양한 맛과 질감으로 이어져 오고 있을지 모를 일이다. "
CNTS_200000000015000,트멍,제주특별자치도 서귀포시 서귀동 211,33.2481088,126.5676114,"서귀포시내, 소품샵, 핸드메이드소품","서귀포시내, 소품샵, 핸드메이드소품",사장님이 직접 만드는 핸드메이드 소품을 만나볼 수 있는 곳
CNTS_300000000012965,해병 3·4기 호국관,제주특별자치도 서귀포시 대정읍 상모리 3318,33.2272873,126.2610544,"문화관광, 체험관광, 안보견학, 전시","문화관광, 체험관광, 안보견학, 전시,공용주차장,쉬움,견학","해병 3·4기 참전 용사들의 숭고한 희생과 헌신을 기리고, 그들의 애국 정신과 자랑스러운 발자취를 기념하기 위한 호국관"
CNTS_200000000011141,"[같이가치 제주여행] 08. 소소하지만 확실한 행복, 제주의 서쪽 해안길을 따라",,,,"부모,커플,친구,혼자,아이,경관/포토,휴식/힐링,체험관광,쇼핑,사계절,청년,중/장년,노년,포토스팟,같이가치,무장애여행","부모,커플,친구,혼자,아이,경관/포토,휴식/힐링,체험관광,쇼핑,사계절,청년,중/장년,노년,포토스팟,같이가치,무장애여행",아름답기로 유명한 제주 서부 해안은 제주의 대표적인 휴양지 중 하나다. 저마다의 매력을 뽐내는 해변은 제주에서도 특히 많은 여행자들에게 사랑 받는 장소이며 이곳에서 서부 해안의 평화로운 파도의 울림을 느낄 수 있다. 에메랄드 빛 바다를 옆에 품고 만져볼 수 있는 트래킹 코스와 충분히 분포한 편의시설에서 식도락을 함께 즐길 수 있으며 서부의 대표적인 재래시장인 한림 오일장 에서는 활기와 함께 서부 해안마을 사람들이 내뿜는 건강한 에너지를 느낄 수 있다.
CNTS_000000000022066,금룡사 템플스테이,제주특별자치도 제주시 구좌읍 김녕로 148-11,33.55384,126.75357,"템플스테이,실내,휴식/힐링,커플,흐림,사계절,문화관광,체험,어트랙션","템플스테이,실내,휴식/힐링,커플,흐림,사계절,템플스테이","금룡사는 제주의 동쪽 김녕리에 자리한 금룡사는 너럭바위와 소나무 등이 어우러져 청룡, 황룡의 조화를 이루는 천연도량이다."
CONT_000000000500931,성산우리집 펜션,제주특별자치도 서귀포시 성산읍 성산리 300,33.466977,126.9344586,"안전인증숙소,휴양펜션,펜션,공공와이파이존,조식 포함,갯벌체험학습장,해변,해수욕장,수상레저,문화관광","안전인증숙소,휴양펜션,펜션,공공와이파이존,조식 포함,갯벌체험학습장,해변,해수욕장,수상레저,문화관광,공용주차장,현금결제,카드결제,무료 WIFI,편의점,음료대,아주 어려움",성산일출봉과 우도 근처에 위치한 성산일출봉펜션 성산 우리집입니다.
CNTS_200000000008023,도예시선,제주특별자치도 제주시 구좌읍 종달리 930,33.4880673,126.8804954,"체험관광,액티비티,쇼핑,도자기,실내,관광기념품,상점/상가","체험관광,액티비티,쇼핑,도자기,실내",도자기 공방과 함께 운영하는 도자기 소품 가게 
CNTS_200000000008006,토토하우스,제주특별자치도 제주시 애월읍 광령리 3846-9,33.3701721,126.48196970000004,"제주공항,독채,엠티,숙소,수영장,바비큐,체험,레저/체험,공공와이파이존","제주공항, 독채, 엠티,공용주차장,현금결제,카드결제,화장실,무료 WIFI,음료대,유도 및 안내시설,경보 및 피난시설,카드결제,현금결제,카카오페이, 입금결제,영어,중국어,일본어,,없음,동반가능,없음,전체금연,식음료장,세미나실,풀장,세탁서비스,인터넷,바베큐장,키즈룸,유아침대,유아욕조,유아의자,",제주 고품격 가족 및 키즈 독채 펜션
CNTS_300000000016084,라이더스랩,제주특별자치도 서귀포시 성산읍 삼달리 1768 라이더스랩,33.3915592,126.830295,"체험, 레저, 승마, 이색체험, 제주마, 곶자왈승마, 오름승마","체험, 레저, 승마, 이색체험, 제주마, 곶자왈승마, 오름승마,공용주차장,현금결제,카드결제,화장실,무료 WIFI,흡연구역,카드결제,현금결제,,영어,중국어,일본어,,실내+실외,하,체험,승마 체험 및 레슨 ,1시간 미만","제주도의 특별함을 담은 승마장이다. 이 곳만의 고사리 곶자왈 코스에서 돌담길과 고사리밭, 소나무숲까지 이어진 특별한 코스를 즐길 수 있다."
CNTS_300000000013581,요가베르데,제주특별자치도 제주시 구좌읍 송당리 537,33.4844346,126.7870743,"요가, 원데이클래스, 체험, 야외, 차담, 글쓰기, 프로그램, 명상","요가, 원데이클래스, 체험, 야외, 차담, 글쓰기, 프로그램, 명상,현금결제,카드결제,공용주차장,카드결제,현금결제",제주 자연 속에서 요가 원데이 클래스를 운영하는 요가원
CNTS_000000000018982,그림그리는펜션,제주도 서귀포시 성산읍 수산리 3342-6,33.43122,126.84392,"펜션,숙소,휴양펜션,민박,독채,반려동물보호소,공공와이파이존,해수욕장,문화관광,수상레저,갯벌체험학습장,바비큐,가족,단체여행객,온돌방,반려동물,반려동물동반입장,혼저옵서개,반려동물동반_숙소","펜션,숙소,휴양펜션,민박,독채,반려동물보호소,공공와이파이존,해수욕장,문화관광,수상레저,갯벌체험학습장,바비큐,가족,단체여행객,온돌방,반려동물,반려동물동반입장,혼저옵서개,반려동물동반_숙소,공용주차장,현금결제,카드결제,화장실,무료 WIFI,흡연구역,유도 및 안내시설,경보 및 피난시설,아주 어려움,동반가능,바베큐장",성산인근에서는 픽업서비스가 가능한 펜션
CNTS_300000000013415,(주)마라도가는여객선,제주특별자치도 서귀포시 대정읍 상모리 133-2 송악산항여객터미널,33.207476,126.2904973,"제주, 마라도, 여객선, 마라도 여행, 가족, 친구, 자연경관","제주, 마라도, 여객선, 마라도 여행, 가족, 친구, 자연경관,공용주차장,화장실,무료 WIFI,카드결제,현금결제,,,장애인 화장실,장애인 전용 주차장,쉬움,실외,등산,해양스포츠,체험,#마라도여행 #최남단여행 #마라도가는여객선 #송악산항,2~3시간",송악산항에서 출발하는 마라도 정기여객선 입니다.
CNTS_200000000012148,[같이가치 제주여행] 17. 서귀포시의 특별한 일상 여행,,,,"커플,혼자,부모,친구,아이,같이가치,무장애여행","커플,혼자,부모,친구,아이","동북아를 잇는 요충지이자 수려한 자연경관으로 사랑 받는 제주. 그 안에서도 가장 따뜻한 도시 서귀포. 대한민국 최남단 도시 서귀포는 빼어난 자연 환경과 더불어 역사와 전통이 살아 숨쉬는 도시이다. 서울 못지 않은 엄청난 볼륨의 관광메카로 발돋움하고 있는 서귀포는 현대의 문화와 예술을 접목한 다양한 시도를 하는 도시로서 그 가치를 뽐내고 있다. 시장의 활기와 예술 공간의 차분함은 관광만이 아닌 도민들의 일상에서도 뗄래야 뗄 수 없는 공간 이다. 아름다움이 있는 서귀포에서 그들의 일상을 걸어보는 체험은 제주여행에서도 특별한 경험이 될 것이다.

"
CNTS_200000000008015,금붕사,제주특별자치도 제주시 구좌읍 하도리 994,33.5011847,126.8887876,"문화유적지,사찰,휴식,절,실내관광지,체험,역사유적,어트랙션","문화유적지, 사찰, 휴식, 절,공용주차장,화장실","구좌읍 하도리에 있는 한국불교 태고종 사찰.
"
CNTS_200000000013514,라헨느리조트,제주특별자치도 제주시 봉개동 237-13,33.4522614,126.6152771,"숙소,안전여행스탬프,포토스팟,골프,리조트,레저/체험","숙소,안전여행스탬프",한라산과 바다를 조망으로 골프와 휴양을 동시에 즐길 수 있는 골프리조트
CNTS_000000000021985,제주오름승마랜드,제주특별자치도 제주시 조천읍 선흘리 454-1,33.4492803,126.7124098,"제주여행, 제주액티비티, 승마, 오름, 숲길, 먹이주기, 힐링, 제주체험, 실외관광지","제주여행, 제주액티비티, 승마, 오름, 숲길, 먹이주기, 힐링, 제주체험, 실외관광지,공용주차장,현금결제,카드결제,화장실,카드결제,현금결제,제로페이,실외,중,1~2시간","영화 속 한 장면처럼, 말을 타고 숲을 거니는 ‘제주오름승마랜드’"
CNTS_300000000013732,성읍민속마을 전통민속 재현축제,제주특별자치도 서귀포시 표선면 성읍리 3292,33.4070607,126.7779787,"성읍민속마을, 전통민속 재현축제전통민속문화, 민속행사","성읍민속마을, 전통민속 재현축제전통민속문화, 민속행사","성읍민속마을에서 열리는 제31회 전통민속 재현축제, 전통공연·체험·먹거리와 경연대회까지 즐길 수 있는 다채로운 축제!"
CNTS_300000000012863,사려니팜,제주특별자치도 제주시 조천읍 교래리 619 ,33.4180631,126.6534847,"아이, 가족, 동물체험, 체험관광, 자연경관, 자연체험, 자연휴양림, 동물먹이주기","아이, 가족, 동물체험, 체험관광, 자연경관, 자연체험, 자연휴양림, 동물먹이주기,공용주차장,카드결제,화장실,무료 WIFI,유도 및 안내시설,카드결제,,영어,,단독접근가능,저상버스 접근 가능,장애인 화장실,쉬움,실내+실외,하,체험,동물먹이체험, 자연휴양림산책,2~3시간","한라산, 사려니숲, 삼다수마을 품은 제주 자연휴양림"
CNTS_200000000013530,요가느림원,제주특별자치도 제주시 노형동 922-6,33.4833249,126.4816843,"힐링,요가,체험,관광지","힐링,요가,체험,관광지,공용주차장,현금결제,카드결제,화장실,무료 WIFI,카드결제,현금결제,,영어,,어려움,실내,중,체험,명상 힐링 자세교정 ,1~2시간",18년된 전통요가원
CNTS_300000000015760,루씨쏜 아뜰리에,제주특별자치도 서귀포시 보목동 1405-1 보목로 64번길 138 1층,33.24119750000001,126.5930741,"체험관광,민화갤러리,미화그리기체험,전시,교육,문화행사,러닝홀리데이인제주,2023_관광10선_가을","체험관광,민화갤러리,미화그리기체험,전시,교육,문화행사,러닝홀리데이인제주,2023_관광10선_가을,현금결제,카드결제,화장실,무료 WIFI,흡연구역,음료대,유도 및 안내시설,경보 및 피난시설,카드결제,현금결제,,영어,일본어,English,단독접근가능,청각장애인 접근성,시각장애인 접근성,저상버스 접근 가능,수동 휠체어 대여 가능,쉬움,실내,하,체험,유아시설,공연/전시,민화 그리기 체험, 미술관람, 아트상품, 카페이용, 전통북 독서, 한국화 민화 정규수업,2~3시간",켜켜이 쌓아가는 제주민화의 매력을 배우다
CNTS_200000000015199,제이앤승마클럽,제주특별자치도 제주시 해안동 351,33.4460514,126.4688305,"제주시, 중산간, 승마, 이색체험","제주시, 중산간, 승마, 이색체험,실외,중,1시간 미만",승마의 기초부터 심화까지 배워가는 곳
CNTS_300000000012716,몽몽까까,제주특별자치도 제주시 아라일동 6034-5,33.4857467,126.5345589,"반려동물수제간식,반려동물,반려동물동반입장,혼저옵서개,반려동물동반_기타체험","반려동물수제간식,반려동물,반려동물동반입장,혼저옵서개,반려동물동반_기타체험,공용주차장,유도 및 안내시설",반려동물 수제간식을 판매하는 이곳은 무인 가게로 24시간 언제든 편하게 방문해 구매할 수 있다.
CNTS_300000000013222,안의울림 국제싱잉볼사운드테라피연구소,제주특별자치도 제주시 애월읍 애월리 2574-1 ,33.465411,126.3120385,"싱잉볼테라피,소규모,제주싱잉볼,제주프리이빗힐링","싱잉볼테라피,소규모,제주싱잉볼,제주프리이빗힐링,공용주차장,현금결제,카드결제,화장실,무료 WIFI,유도 및 안내시설,카드결제,현금결제,,영어,,단독접근가능,청각장애인 접근성,시각장애인 접근성,장애인 전용 주차장,쉬움,실내+실외,하,체험,힐링, 마음챙김, 명상, 싱잉볼, 웰니스,1~2시간","싱잉볼의사운드와 진동안에서 휴식, 명상, 쉼을 통한 힐링프로그램을 진행합니다. "
CNTS_300000000013404,MZ의 배리어프리 제주여행 2일차,,,,"배리어프리,제주여행,친구,제주음식점,흑돼지,액티비티,체험","배리어프리,제주여행,친구,제주음식점,흑돼지,액티비티,체험","장애인·비장애인이 함께 기획한, MZ세대가 직접 떠먹여주는 새롭고 재미난 배리어프리 제주여행! 그 길을 따라가보아요~!"
CNTS_300000000013406,MZ의 배리어프리 제주여행 3일차,,,,"배리어프리,제주여행,친구,제주음식점,갈치,자연경관,액티비티,체험","배리어프리,제주여행,친구,제주음식점,갈치,자연경관,액티비티,체험","장애인·비장애인이 함께 기획한, MZ세대가 직접 떠먹여주는 새롭고 재미난 배리어프리 제주여행! 그 길을 따라가보아요~!"
CONT_000000000500436,에버리스 골프리조트,제주특별자치도 제주시 애월읍 평화로 1693-75,33.37819,126.36217,"골프,액티비티,체험,레저/체험,숙소,리조트,어트랙션","골프,액티비티,공용주차장,현금결제,카드결제,화장실,무료 WIFI,흡연구역,편의점,음료대,유도 및 안내시설,경보 및 피난시설,아주 어려움","오름, 바다, 돌, 바람, 억새 등 제주의 자연을 담은 코스"
CNTS_200000000013515,하늘만큼 땅만큼 펜션,제주특별자치도 제주시 애월읍 하귀2리 2669,33.4832683,126.3942235,"숙소,안전여행스탬프,펜션,바비큐,체험,수상레저,레저/체험","숙소,안전여행스탬프,펜션,바비큐,체험,수상레저,레저/체험","넓고 쾌적한 객실 전체가 오션뷰로, 다양한 시설과 1200평 규모의 넓은 공간에 포토존이 구비되어 있는 숙소"
CNTS_300000000013998,서바이벌 제주,제주특별자치도 제주시 오라이동 1770 지하1층,33.4817431,126.5089481,"서바이벌, 실내게임장, 액티비티, 실내놀거리, 체험","서바이벌, 실내게임장, 액티비티, 실내놀거리, 체험,카드결제,화장실,무료 WIFI,공용주차장,현금결제,카드결제,현금결제",스릴 넘치는 레이저 서바이벌 게임장 
CNTS_300000000013253,제주별빛누리공원 슈퍼문 관측회,제주특별자치도 제주시 오등동 10-34,33.4451439,126.5492347,"제주별빛누리공원,슈퍼문,보름달,토성,달,천체망원경,망원경체험","제주별빛누리공원,슈퍼문,보름달,토성,달,천체망원경,망원경체험",제주의 여름 밤하늘을 즐기는 '2024년 제주별빛이야기'
CNTS_300000000013943,하이파이브제주,제주특별자치도 제주시 오라이동 3295-10 1층,33.4734115,126.5034106,"키즈카페, 원데이클래스, 참여형, 프로그램, 체험","키즈카페, 원데이클래스, 참여형, 프로그램, 체험,현금결제,카드결제,화장실,무료 WIFI,카드결제,현금결제",탐구하고 몰입하는 이색체험 키즈카페 
CNTS_300000000013389,제주의 마을에서 만나는 해녀 이야기<김녕어촌체험휴양마을 해녀체험>,,,,#제주여행 #김녕리 #제주로컬여행 #카름스테이 #제주해녀 #제주해녀문화 #김녕해녀체험 #김녕마을 #해녀 #제주동쪽 #김녕어촌체험휴양마을 #김녕수산문화복합센터,#제주여행 #김녕리 #제주로컬여행 #카름스테이 #제주해녀 #제주해녀문화 #김녕해녀체험 #김녕마을 #해녀 #제주동쪽 #김녕어촌체험휴양마을 #김녕수산문화복합센터,"바다와 바람이 어우러진 아름다운 마을 김녕은 어촌체험휴양마을로 지정된 곳으로 다양한 체험활동을 즐길 수 있다. 특히 김녕에서 진행하는 해녀체험에는 특별한 것이 있다. 바로 40년 이상 경력의 현역 해녀들과 함께하는 물질체험이다. 단순히 잠수를 하고 물에서 잠수하는 것이 아닌 해녀와 함께 해녀문화에 대해 배우고 물질 비법을 전수받는 특별한 시간, 제주의 김녕마을에서 즐기는 해녀체험을 만나보자."
CNTS_300000000013504,"온 가족이 특별한 추억을 쌓는 5월, <가정의 달> 어린이와 함께 하는 특별한 제주 행사",,,,#제주어린이날 #어린이날 #어린이날행사 #제주어린이날행사 #제주5월여행 #제주가족여행 #제주여행 #제주가정의달 #제주어린이날가볼만한곳 #제주아이랑 #제주아이랑가볼만한곳 #제주꿈바당어린이도서관 #귤꽃계절 #제주에코랜드 #제주신화월드 #제주도립미술관 #제주안전체험관,#제주어린이날 #어린이날 #어린이날행사 #제주어린이날행사 #제주5월여행 #제주가족여행 #제주여행 #제주가정의달 #제주어린이날가볼만한곳 #제주아이랑 #제주아이랑가볼만한곳 #제주꿈바당어린이도서관 #귤꽃계절 #제주에코랜드 #제주신화월드 #제주도립미술관 #제주안전체험관,햇살이 내리쬐는 5월의 제주는 가족과 방문하기에 안성맞춤인 곳이다. 특히 아이와 같이 제주를 찾는다면 제주 곳곳에서 열리는 다채로운 행사에 참여해 보는 것을 추천한다. 여행 중 우연히 마주치는 행사도 좋지만 미리 정보를 알고 가면 더욱 세심하게 즐길 수 있을 것이다. 이번 글에서는 부모님과 아이가 함께 추억을 쌓을 수 있는 제주의 행사들을 소개한다.
CNTS_000000000019654,해품은체험농장,제주특별자치도 서귀포시 성산읍 수산리 225,33.443462,126.89263,"부모,친구,아이,체험관광,맑음,체험,어린이,어트랙션","부모,친구,아이,체험관광,맑음,공용주차장",청정제주의 깨끗한 자연에서 감귤을 정성껏 재배하고 있는 체험형 감귤농장입니다.
CNTS_300000000015890,홀리데이 다이빙 코리아,제주특별자치도 서귀포시 서귀동 688-5,33.240863,126.5628388,"서귀포, 칠십리, 스쿠버다이빙, 이색체험","서귀포, 칠십리, 스쿠버다이빙, 이색체험,실외,중,2~3시간",제주 다이빙 포인트에서 만끽하는 바다
CNTS_000000000022170,한모살,제주특별자치도 제주시 구좌읍 행원리 1537-10,33.55419,126.80033,"숙소,게스트하우스,바비큐,단체여행객,온돌방,독채,해수욕장,공공와이파이존,체험","숙소,게스트하우스,바비큐,단체여행객,온돌방,독채,해수욕장,공공와이파이존,체험",한모살펜션은 월정리 바닷가 근처에 위치한 펜션입니다.
CNTS_200000000012074,<제주마(馬)>와 함께 하는 특별한 여행,,,,"부모,커플,혼자,친구,아이,맑음,흐림,경관/포토,휴식/힐링,테마공원,체험관광,미술/박물관,문화유적지,일출,일몰,밤,올레,오름,해변,4.3,실내,사계절,청년,중/장년,휴식/치유,전시와 행사,노년,포토스팟","부모,커플,혼자,친구,아이,맑음,흐림,경관/포토,휴식/힐링,테마공원,체험관광,미술/박물관,문화유적지,봄,겨울,가을,여름,일출,일몰,밤,올레,오름,해변,4.3,실내,사계절,청년,중/장년,휴식/치유,전시와 행사,노년","제주인에게 있어 말은 각별한 의미를 지녔다. 청동기가 시작된 옛적부터 말과 함께 살아온 제주도는 2014년 오늘날 제1호 말산업특구로 지정되어 다시금 마(馬)와의 끈끈한 연을 확인시켜 주었다.승마장이나 목장이 모인 중산간 지대에서부터 숲길, 바닷길 곳곳. 이번 테마여행에서는 제주의 마(馬)를 상징하는 관광 명소와 역사, 터전을 두루 체험해 볼 수 있는 곳으로 떠나본다."
CNTS_200000000013648,휴식과 힐링이 필요하다면! <제주 웰니스 힐링 프로그램 여름 기획전>,,,,"힐링,웰니스,체험,레저/체험,요가,숲길,도보,도보여행,여름","힐링,웰니스,체험,레저/체험,요가,숲길,도보,도보여행,여름",힐링이 가득한 여름휴가를 계획하고 있다면 주목하길 바란다. 제주관광공사는 이번 여름 휴가시즌에 맞춰 제주에서만 즐길 수 있는 특별판 웰니스 힐링 프로그램 기획전을 운영한다. 시끄럽고 복잡한 도심에서 벗어나 제주에서만 만날 수 있는 특별한 제주 웰니스 프로그램을 통해 제주의 속도로 온전히 나와 마주해보자.
CNTS_000000000019763,귤빛캠핑장,제주특별자치도 제주시 조천읍 대흘리 172,33.504955,126.67441,"야영장,캠핑장,액티비티,커플,맑음,여름,체험,레저/체험,캠핑,언택트,어트랙션,숙박,반려동물,반려동물동반입장,혼저옵서개,반려동물동반_숙소","야영장,캠핑장,액티비티,커플,맑음,여름,체험,레저/체험,캠핑,언택트,어트랙션,숙박,반려동물,반려동물동반입장,혼저옵서개,반려동물동반_숙소","취사실, 화장실, 샤워실, 매점, 와이파이가 준비된 귤빛캠핑장 입니다."
CNTS_300000000015850,라인업서프 하도,제주특별자치도 제주시 구좌읍 하도리 880-12,33.5108067,126.8921626,"맑음,체험관광,액티비티,여름,해변, 구좌읍, 하도리, 서핑","구좌읍, 하도리, 서핑,실외,중,2~3시간",동쪽끝 하도리 바다를 즐기는 서핑체험
CNTS_200000000011334,율랜드 다이브센터,제주특별자치도 서귀포시 보목동 762-5,33.2415286,126.6031469,"액티비티,커플,친구,체험,레저/체험,수상레저,어트랙션,관광지","액티비티,커플,친구,체험,레저/체험,수상레저,어트랙션,관광지,현금결제,카드결제,화장실,무료 WIFI,흡연구역,음료대,유도 및 안내시설,경보 및 피난시설,카드결제,현금결제,,,실내+실외,하,,2~3시간","서귀포 스쿠버다이빙 체험,투어 및 교육 전문업체"
CNTS_200000000014305,댕댕샤워,제주특별자치도 제주시 애월읍 하귀1리 161-10,33.4845827,126.4155098,"애견미용실,반려동물,반려동물동반입장,혼저옵서개,반려동물동반_기타체험","애견미용실,반려동물,반려동물동반입장,혼저옵서개,반려동물동반_기타체험,공용주차장,화장실,무료 WIFI",댕댕샤워는 애월읍 하귀리에 위치한 반려동물 미용실 및 유치원이다.
CNTS_200000000013992,안온점,제주특별자치도 제주시 한림읍 옹포리 608 2층,33.4031019,126.2522613,"기념품,공방,원데이클래스,라탄,쇼핑","기념품,공방,원데이클래스,라탄,공용주차장,현금결제,카드결제,화장실,무료 WIFI,편의점,카드결제,현금결제,,,기념품/소품,,가능",빈티지 인테리어 소품 판매와 라탄공방 원데이 클래스 및 정규 클래스가 가능한 곳
CNTS_300000000013940,물메쉼팡,제주특별자치도 제주시 애월읍 수산리 463-17 2층,33.4672346,126.3935349,"쉼터, 쉼팡, 카페, 체험, 음료, 커피 ","쉼터, 쉼팡, 카페, 체험, 음료, 커피 ,카드결제,현금결제,현금결제,카드결제",자연 속에서 DIY 체험이 가능한 쉼터 
CNTS_200000000009833,제주햇살농원,제주특별자치도 제주시 조천읍 선흘리 3530-1,33.4777041,126.7135515,"감귤농장,체험농장,감귤,자연경관,체험,어트랙션","감귤농장, 체험농장, 감귤,공용주차장,무료 WIFI,카드결제,현금결제,실내+실외,하,체험","제주의 세계자연유산인 거문오름, 람사르습지인 동백동산, 함덕서우봉해변 등 명소 인근에서 따뜻한 햇살과 정성으로 유기농감귤를 재배하고 있는 감귤농장"
CNTS_200000000007192,남원 위미2리 어촌계,제주특별자치도 서귀포시 남원읍 위미리 1662-1,33.274857,126.6695033,"경관/포토,체험관광,해변,바릇잡이,올레5코스,체험,포토스팟,어트랙션","경관/포토,체험관광,해변,바릇잡이,올레5코스,실외,하,체험,바릇잡이","올레 5코스에 위치한 보말, 다슬기, 청각이 가득한 바릇잡이 포인트."
CNTS_200000000009853,비양도 연평리 야영지,제주특별자치도 제주시 우도면 연평리 3,33.5151524,126.9568199,"맑음,흐림,자연경관,체험,캠핑,캠핑장,언택트,어트랙션","맑음,흐림,실외,캠핑",우도가 품은 작은 섬 비양도에 있는 야영지
CNTS_300000000012747,해맑은동물병원,제주특별자치도 제주시 노형동 759,33.4765347,126.4783856,"반려동물병원,반려동물,반려동물동반입장,혼저옵서개,반려동물동반_기타체험","반려동물병원,반려동물,반려동물동반입장,혼저옵서개,반려동물동반_기타체험,공용주차장,화장실,무료 WIFI,유도 및 안내시설,경보 및 피난시설",해맑은동물병원은 한라대 근처에 위치한 병원이다.
CNTS_000000000019475,제주레이크힐스컨트리클럽,제주특별자치도 서귀포시 중문동 산 5,33.306812,126.43271,"골프,액티비티,체험,레저/체험,어트랙션","골프,액티비티,공용주차장,현금결제,카드결제,화장실,무료 WIFI,흡연구역,편의점,음료대,유도 및 안내시설,경보 및 피난시설",제주의 특성을 고스란히 코스에 옮겨놓은 환경친화적 골프장
CNTS_200000000015066,세화리109,제주특별자치도 제주시 구좌읍 세화리 28-8,33.5211685,126.8619058,"구좌읍, 세화리, 소품샵, 캔들, 잡화, 문구류","구좌읍, 세화리, 소품샵, 캔들, 잡화, 문구류",세화리 마을 어귀에 있는 감성소품샵
CNTS_200000000011920,서중천탐방로,제주특별자치도 서귀포시 남원읍 한남리 1622-3,33.3305697,126.6740675,"부모,커플,친구,맑음,흐림,휴식/힐링,자연경관,체험,도보여행,도보,어트랙션,관광지","부모,커플,친구,맑음,흐림,휴식/힐링","낙엽을 밟는 소리가 좋고, 서중천 계곡을 따라 흐르는 물소리가 좋은 곳이다. 봄에는 참꽃나무, 여름엔 시원한 물, 가을에는 단풍이 겨울엔 설경이 좋은 곳이다. 서중천을 따라 천천히 걸어보자. 다른 사람들은 발견 못한 비경을 발견할 수도 있다."
CNTS_300000000015851,모비딕다이브,제주특별자치도 서귀포시 서홍동 743-5,33.2427874,126.5555851,"맑음,체험관광,액티비티,해변, 서귀포, 서핑","맑음,체험관광,액티비티,해변, 서귀포, 서핑,실외,중,2~3시간",제주도내 유일 요트 다이빙 체험
CONT_000000000500873,몬딱쉼터,제주특별자치도 서귀포시 토평동 1677-1,33.2844099,126.5796743,"민박,숙소,펜션,휴양펜션,주차장,정원,게스트하우스,무장애관광,농어촌민박","민박,숙소,펜션,휴양펜션,주차장,정원,게스트하우스,무장애관광,농어촌민박,공용주차장,현금결제,카드결제,화장실,무료 WIFI,흡연구역,편의점,음료대,유도 및 안내시설,경보 및 피난시설,단차없음,장애인 전용 주차장,어려움",친환경 유기농 체험농장과 함께하는 콘도형 펜션
CNTS_200000000007936,"For KID, With KID. 아이와 함께하는 제주도 체험 여행<사랑하는 아이와 함께여서 더욱 뜻깊은 체험>",,,,"아이,체험관광","아이,체험관광","사랑하는 내 아이에게는 더 좋은 것만 주고 싶은 것이 부모님의 마음. 아이들이 먹고 마시는 음료와 먹거리부터 매일같이 사용하는 비누와 화장품까지, 제주도의 천연 재료로 만들어본다면 이보다 더 뜻깊은 체험이 있을까? 아이와 함께해서 더 즐거운 제주도 체험 여행. 제주도를 즐기는 또 다른 방법을 살펴보자."
CNTS_200000000009371,제주머무리,제주특별자치도 서귀포시 안덕면 덕수리 1596,33.2769758,126.3134998,"부모,커플,친구,아이,펜션,바베큐,감귤농장,숙소,해수욕장,체험,자연학습장,무장애관광","부모,커플,친구,아이,펜션,바베큐,감귤농장,화장실,무료 WIFI,흡연구역,유도 및 안내시설,경보 및 피난시설,현금결제,계좌이체,영어,,청각장애인 접근성,시각장애인 접근성,동반불가능,없음,흡연구역제공,인터넷,바베큐장,농장둘레길,,운행안함","깨끗하고 편안한 숙소, 조용하고 자연친화적인 단독콘도형 숙박시설, 가깝고 다양한 관광볼거리, 편안한 공간,  매우 조용하고 한적한 곳으로 힐링할 수 있는 곳"
CNTS_300000000015886,파인더웨이브,제주특별자치도 제주시 애월읍 곽지리 1549-1,33.4533803,126.3087106,"애월, 곽지, 서핑, 윈드서핑, 이색체험","애월, 곽지, 서핑, 윈드서핑, 이색체험,실외,중,2~3시간",입문하기 딱 좋은 곽지해수욕장 서핑샵
CNTS_300000000013606,공간서오,제주특별자치도 제주시 조천읍 선흘리 1948-6,33.4596282,126.7021036,"카페, 음료, 디저트, 도자기, 공방, 체험, 클래스, 유기농","카페, 음료, 디저트, 도자기, 공방, 체험, 클래스, 유기농,현금결제,카드결제,카드결제,현금결제,어린이 출입가능",유기농 밀가루를 사용한 빵과 진한 커피가 있는 카페
CNTS_300000000012723,펫플러스,제주특별자치도 제주시 연동 262-4,33.4876493,126.4895315,"애견용품,반려동물,반려동물동반입장,혼저옵서개,반려동물동반_기타체험","애견용품,반려동물,반려동물동반입장,혼저옵서개,반려동물동반_기타체험,공용주차장,화장실,무료 WIFI,유도 및 안내시설,경보 및 피난시설","펫 플러스는 제주도 내 최대 규모의 애견용품 할인매장으로써, 매장의 마스코트‘신’이라는 강아지가 손님을 반겨준다."
CNTS_300000000013602,다라요가스튜디오,제주특별자치도 제주시 조천읍 함덕리 2834-1 2층,33.5400476,126.6593535,"요가, 원데이클래스, 자연, 체험, 하타요가, 수업","요가, 원데이클래스, 자연, 체험, 하타요가, 수업,공용주차장,현금결제,카드결제,화장실,무료 WIFI,음료대,경보 및 피난시설,카드결제,현금결제,탐나는전 사용가능,영어,,실내,하,체험,요가 클래스,1~2시간","[제주 함덕 요가 클래스] 제주의 자연 속 쉼, 오름 뷰 요가 체험 | 다라요가스튜디오"
CNTS_200000000007940,고사리숲,제주특별자치도 제주시 애월읍 광령리 2535  제주관광대학교 내 창업보육센터 본관 315호,33.4487267,126.4339396,"체험관광,아이,화장품,자연경관,체험,숲,어린이","체험관광,아이,화장품","립밤 만들기, 비누 만들기 체험을 할 수 있는 곳"
CNTS_000000000019675,올레해오름펜션,제주특별자치도 제주시 애월읍 광령리 2812-2,33.4322775,126.4329879,"휴식,숙소,휴양펜션,펜션,독채,단체여행객,바비큐,공공와이파이존,해수욕장,가족,반려동물보호소,골프,체험,반려동물동반입장,반려동물,반려동물동반_숙소","휴식,숙소,휴양펜션,펜션,독채,단체여행객,바비큐,공공와이파이존,해수욕장,가족,반려동물보호소,골프,체험,반려동물동반입장,반려동물,반려동물동반_숙소,공용주차장,현금결제,카드결제,화장실,무료 WIFI,흡연구역,유도 및 안내시설,경보 및 피난시설,아주 어려움",친환경적 목조주택으로 만들어진 휴양형 고급펜션
CNTS_300000000012749,조은동물병원,제주특별자치도 서귀포시 서귀동 270-7,33.2503019,126.564913,"반려동물병원,반려동물,반려동물동반입장,혼저옵서개,반려동물동반_기타체험","반려동물병원,반려동물,반려동물동반입장,혼저옵서개,반려동물동반_기타체험,화장실,유도 및 안내시설,경보 및 피난시설",조은동물병원은 서귀포시 서귀동에 위치해있다.
CNTS_300000000013527,무드랜드,제주특별자치도 제주시 노형동 1022-5 1층 무드랜드,33.4933382,126.4765513,"체험, 캔들, 공방, 원데이클래스, 제주공방, 일일체험, 클래스, 만들기, 기념품","체험, 캔들, 공방, 원데이클래스, 제주공방, 일일체험, 클래스, 만들기, 기념품,화장실,무료 WIFI,카드결제,현금결제,,영어,중국어,일본어,,단독접근가능,단차없음,어려움,실내,하,체험,기념품 체험 원데이클래스 ,1~2시간",제주스러운 캔들만들기 체험을 할 수 있는 곳 
CNTS_300000000015885,토이레저,제주특별자치도 서귀포시 안덕면 동광리 383,33.3189962,126.3456767,"서귀포, 안덕면, 동광리, ATV, 전동바이크, 깡통열차, 사격","서귀포, 안덕면, 동광리, ATV, 전동바이크, 깡통열차, 사격,실외,하,1시간 미만",어린이가 좋아하는 안덕면 레저체험장
CNTS_000000000019888,중문카라반,제주특별자치도 서귀포시 이어도로 81,33.24047,126.49301,"야영장,캠핑장,액티비티,맑음,체험,레저/체험,캠핑,언택트,어트랙션","야영장,캠핑장,액티비티,맑음,체험,레저/체험,캠핑,언택트,어트랙션,공용주차장,아주 어려움","중문하나로마트에서 5분도채 걸리지 않는곳에 위치하며 아프리카 박물관, 주상절리 근처로 찾기가 쉽습니다."
CNTS_000000000019111,포유펜션,제주특별자치도 서귀포시 남원읍 남원리 398-2,33.2959968,126.7109459,"펜션,숙소,휴양펜션,바비큐,체험,공공와이파이존,단체여행객,가족,해수욕장,물품보관서비스,주차장","펜션,숙소,휴양펜션,바비큐,체험,공공와이파이존,단체여행객,가족,해수욕장,물품보관서비스,주차장,현금결제,카드결제,화장실,무료 WIFI,흡연구역,편의점,음료대,유도 및 안내시설,경보 및 피난시설,아주 어려움",남원에 위치한 감귤과수원 및 연못이 있는 펜션
CNTS_300000000013137,"제주에서 한 겹 더 가벼워지기 : 푸른 바다 플로깅과 요모조모 새활용 체험, 비워내는 힐링 요가",,,,#제주청년크리에이터 #제주청년서포터즈 #플로깅 #쓰레기줍기 #봉그깅 #제주플로깅 #제주봉그깅 #제주디프다#새활용체험 #제주업사이클링체험 #제주체험 #친구와함께 #제주단체방문 #제주추억만들기#잠시멈춤 #제주요가 #제주힐링#빠우사 #자연명상 #자연요가 #힐링요가#비짓제주 #제주관광서포터즈,#제주청년크리에이터 #제주청년서포터즈 #플로깅 #쓰레기줍기 #봉그깅 #제주플로깅 #제주봉그깅 #제주디프다#새활용체험 #제주업사이클링체험 #제주체험 #친구와함께 #제주단체방문 #제주추억만들기#잠시멈춤 #제주요가 #제주힐링#빠우사 #자연명상 #자연요가 #힐링요가#비짓제주 #제주관광서포터즈,"도파민 과잉 시대를 사는 우리. 힐링을 위한 여행에서조차도 핸드폰을 놓지 못하고 ‘여기 좋다더라’, ‘저기는 꼭 가봐야 한다더라’라는 말에 휘둘려 정신없는 시간을 보내고 있지는 않나요? 그렇게 바쁜 여행 끝에는 피로만 남아 후회했던 기억도 많지 않나요? 정말 제주도만의 진짜 얼굴을 마주하고 디톡스하는 여행, 가치 있는 여행길에 오르고 싶은 분도 계실 거예요.
여기 제주에서 비워내는 여행, 가벼워지는 라이프 스타일을 제안합니다. 제주의 생태와 의미 있는 활동에 두 발을 딛고 차분히 몸을 움직일 때 우리는 오히려 더 가벼워지고 산뜻해집니다. 제주로 마음이 한 움큼 가벼워지는 여행을 떠나보세요."
CNTS_200000000008832,스위트몽키,제주특별자치도 제주시 한경면 청수리 3306-8,33.2948957,126.2358783,"부모,아이,체험관광,실내관광지,체험,어린이,어트랙션","부모,아이,체험관광,실내관광지,체험,어린이,어트랙션,공용주차장,카드결제,현금결제,어려움,실내+실외,하,체험,1~2시간",청정제주에서 친환경 농법으로 키운 맛있고 건강한 무농약 바나나농장 체험 프로그램
CNTS_300000000013784,2025 제4회 제주 한의약 웰니스 전시체험 박람회,제주특별자치도 제주시 오라일동 2444-7 2층,33.4985028,126.5132546,"제주, 한의약, 웰니스, 전시, 박람회","제주, 한의약, 웰니스, 전시, 박람회,,,장애인 화장실,장애인 전용 주차장","몸과 마음의 길을 찾다, 웰니스 내비게이션 / 한의약과 함께 걷는 웰니스의 길"
CNTS_200000000015095,벨집,제주특별자치도 서귀포시 안덕면 화순리 1238-1,33.2515289,126.3344237,"서귀포, 안덕면, 화순리, 소품샵, 공방, 도자기, 의류, 잡화","서귀포, 안덕면, 화순리, 소품샵, 공방, 도자기, 의류, 잡화",조용한 마을에 숨겨진 공방·소품 가게
CNTS_000000000022541,이호털보네배낚시,제주특별자치도 제주시 이호1동 1787,33.497173,126.44942,"낚시,액티비티,친구,체험,레저/체험,어트랙션","낚시,액티비티,친구,체험,레저/체험,어트랙션",초보자도 쉽게 할수 있는 배낚시 체험
CNTS_000000000001530,세인트포골프장,제주특별자치도 제주시 구좌읍 김녕리 5160-2,33.5199412,126.7412425,"골프,액티비티,체험,레저/체험,어트랙션,무장애관광","골프,액티비티,체험,레저/체험,어트랙션,공용주차장,현금결제,카드결제,화장실,무료 WIFI,흡연구역,편의점,음료대,유도 및 안내시설,경보 및 피난시설,단차없음,청각장애인 접근성,시각장애인 접근성,쉬움","전장 7,550야드,바다와 하늘, 숲이 하나로 어우러지는 친환경적인 골프장"
CNTS_200000000012469,제로스테이션(제로포인트트레일),제주특별자치도 제주시 건입동 1136 2층,33.5147335,126.5292798,"휴식/힐링,체험관광,액티비티,사계절,체험,레저/체험,어트랙션,관광지","휴식/힐링,체험관광,액티비티,사계절,체험,레저/체험,어트랙션,관광지","제로스테이션은 산지천에 위치한 카페이자 길과 여행을 사랑하는 사람들을 위한 공간이다. 이곳은 제로포인트트레일의 참여자를 위한 베이스캠프 역할을 하고 있다. 제로포인트트레일은 해발 0m인 제주 해안가에서 출발해 해발 1,947m인 한라산 정상까지 차량, 동력의 힘을 빌리지 않고 오로지 참가자의 두 발로 정상까지 오르는 트레킹 프로그램이다."
CNTS_200000000014286,도곤도곤 애견미용실,제주특별자치도 제주시 연동 2326-13,33.4920452,126.488127,"애견미용실,반려동물,반려동물동반입장,혼저옵서개,반려동물동반_기타체험","애견미용실,반려동물,반려동물동반입장,혼저옵서개,반려동물동반_기타체험,공용주차장,화장실,무료 WIFI","도곤도곤 애견미용실은 소형견(말티즈, 포메, 푸들, 요키, 시츄 등)과 중형견(비숑, 베들, 스피츠, 슈나 등)이 미용을 할 수 있는 곳이다."
CNTS_300000000012715,몽story,제주특별자치도 제주시 애월읍 하귀1리 157-6,33.4840605,126.4160275,"애견미용실,반려동물,반려동물동반입장,혼저옵서개,반려동물동반_기타체험","애견미용실,반려동물,반려동물동반입장,혼저옵서개,반려동물동반_기타체험,공용주차장,화장실,무료 WIFI,유도 및 안내시설",몽story는 반려동물에게 최고의 서비스를 제공하는 장소다.
CNTS_300000000013663,퐁당제주,제주특별자치도 제주시 애월읍 구엄리 607-4,33.4841847,126.3773719,"액티비티, 물놀이, 제트보트, 투명카약, 스피드보트, 체험, 해양","액티비티, 물놀이, 제트보트, 투명카약, 스피드보트, 체험, 해양,현금결제,카드결제,카드결제,현금결제,실외,1시간 미만","제트보트, 제트스키, 스피드보트 등 해양 액티비티 체험 기회를 제공하는 레저 전문점"
CNTS_200000000015090,메리아일랜드,제주특별자치도 제주시 한림읍 금능리 1430,33.3888953,126.2315085,"한림, 금능리, 소품샵, 캔들공방, 인테리어소품, 기념품, 쇼핑","한림, 금능리, 소품샵, 캔들공방, 인테리어소품, 기념품, 쇼핑",제주향기를 머금은 아담한 소품 가게
CNTS_200000000015173,로봇플래닛,제주특별자치도 서귀포시 안덕면 서광리 산 35-22,33.2991595,126.3085849,체험,"체험,실내,하,1~2시간",영화 속 주인공처럼 즐기는 로봇 체험
CONT_000000000500753,지소울,제주특별자치도 제주시 화북일동 1972-5,33.520097,126.5677523,"쇼핑,공방,지오브랜드,기념품,관광기념품,상점/상가","쇼핑,공방,지오브랜드,기념품,관광기념품,상점/상가,현금결제,카드결제,화장실,착한가격 업소,지오브랜드",제주를 담는 비누판매와 체험이 가능한 온오프라인 공간
CNTS_300000000013420,제주해녀체험,제주특별자치도 서귀포시 남원읍 하례리 64-10,33.258683048409694,126.63966634371339,"액티비티,친구,커플,맑음,체험,레저/체험,수상레저,어트랙션","액티비티,친구,커플,맑음,체험,레저/체험,수상레저,어트랙션,공용주차장,현금결제,카드결제,화장실,무료 WIFI,흡연구역,카드결제,현금결제,,,,1~2시간",제주에서만 즐 길 수 있는  해녀체험 및 스쿠버체험다이빙 
CNTS_300000000015837,뎁스원 프리다이빙센터,제주특별자치도 제주시 한림읍 협재리 1890,33.3962638,126.2432389,"맑음,체험관광,액티비티,해변,한림,협재,프리다이빙,플로빙,러닝홀리데이인제주","맑음,체험관광,액티비티,해변, 한림, 협재, 프리다이빙, 플로빙,실외,상,3시간 이상",전문적으로 프리다이빙을 배워볼 수 있는 곳
CNTS_000000000018280,서귀포 늘바다 애견동반펜션,제주특별자치도 서귀포시 안덕면 창천리 901-6,33.237247,126.3636731,"펜션,숙소,휴양펜션,반려동물보호소,독채,바비큐,계곡,단체여행객,가족,해변,체험,반려동물동반입장,반려동물,무장애관광,반려동물동반_숙소,농어촌민박","펜션,숙소,휴양펜션,반려동물보호소,독채,바비큐,계곡,단체여행객,가족,해변,체험,반려동물동반입장,반려동물,무장애관광,반려동물동반_숙소,농어촌민박,공용주차장,현금결제,카드결제,화장실,무료 WIFI,편의점,음료대,유도 및 안내시설,경보 및 피난시설,장애인 전용 주차장,아주 어려움",100이상 수령의 소나무로 지어진 통나무별장
CNTS_300000000012732,제주스런서귀포점,제주특별자치도 서귀포시 도순동 186,33.2626873,126.4750465,"이색체험,예약제,업사이클,반려동물,반려동물동반입장,혼저옵서개,반려동물동반_기타체험","이색체험,예약제,업사이클,반려동물,반려동물동반입장,혼저옵서개,반려동물동반_기타체험,공용주차장,화장실,무료 WIFI",제주스런 서귀포점은 제주의 편백나무를 이용해 무드등을 직접 만들어볼 수 있는 제주를 가득 담은 공방이다.
CNTS_300000000015839,디퍼프리다이브,제주특별자치도 서귀포시 서귀동 101-4,33.2451378,126.5700092,"맑음,체험관광,액티비티,해변,여름, 서귀포시내, 프리다이빙","맑음,체험관광,액티비티,해변,여름, 서귀포시내, 프리다이빙,실외,중,3시간 이상",체계적인 프리다이빙 프로그램을 토대로 이론과 해양 다이빙을 배울 수 있는 곳
CNTS_200000000013093,인카페온더비치,제주특별자치도 제주시 구좌읍 한동리 1638,33.5452089,126.8280757,"한동,바베큐,캠핑,음식,식당,아메리카노,카페라떼,바닐라라떼,헤이즐넛라떼,카라멜마끼아또,아인슈페너,아포가토,초코라떼,핫초코,녹차라떼,밀크티,고구마라떼,유자차,생강차,레몬차,자몽차,홍차,허브티,아이스티,에이드,딸기라떼,레몬에이드,자몽에이드,모히또,자몽주스,오렌지주스","한동,바베큐,캠핑,음식,식당,아메리카노,카페라떼,바닐라라떼,헤이즐넛라떼,카라멜마끼아또,아인슈페너,아포가토,초코라떼,핫초코,녹차라떼,밀크티,고구마라떼,유자차,생강차,레몬차,자몽차,홍차,허브티,아이스티,에이드,딸기라떼,레몬에이드,자몽에이드,모히또,자몽주스,오렌지주스,공용주차장,화장실,무료 WIFI,아메리카노, 아인슈페너, 수제차,어린이 출입가능,가능",제주시 한동리에 위치한 인카페 온 더 비치는 프라이빗 해변인 애기바당을 지닌 오션뷰카페이며 다양한 체험을 즐길 수 있는 카페이다.
CNTS_200000000009211,제스피 맥주협동조합 양조장,제주특별자치도 서귀포시 남원읍 한남리 산 5-20,33.3258417,126.6696618,"커플,혼자,친구,휴식/힐링,체험관광,사계절,청년,실내관광지,체험,어트랙션","커플,혼자,친구,휴식/힐링,체험관광,사계절,청년,공용주차장,화장실,유도 및 안내시설,,영어,,쉬움,실내+실외,하,,1시간 미만","제주에서만 맛볼 수 있는 특별한 맥주, 제주에서 만나는 또 다른 즐거움 "
CNTS_200000000013510,제주 한림공원 수국 축제,제주특별자치도 제주시 한림읍 협재리 2487,33.3894949,126.2396825,"축제,꽃축제,포토스팟,체험,힐링,가족,행사,자연경관,여름","축제,꽃축제,포토스팟,체험,힐링,가족,행사,자연경관,여름",10만 평 대지 위에 또 하나의 제주인 한림공원에서 열리는 수국 축제
CNTS_200000000008597,팀케이,제주특별자치도 제주시 노형동 2239-1,33.4752847,126.4730255,"체험관광,해변,액티비티,체험,레저/체험,어트랙션","체험관광,해변,액티비티,체험,레저/체험,어트랙션,공용주차장,현금결제,카드결제,화장실,카드결제,현금결제,,영어,,실외,하,체험,전동킥보드대여,2~3시간","원하는 곳에서 대여, 반납 서비스를 제공하는 킥보드 렌털숍."
CNTS_000000000022558,그땐 그랬지. 옛 추억 찾아 떠나는 여행,,0.0,0.0,"식도락,체험,카페,실내,테마공원,경관/포토,사계절,포토스팟","식도락,체험,카페,실내,테마공원,경관/포토,사계절,포토스팟","오늘도 역시 바쁘고 만만치 않은 하루지만, 옛 향수를 떠올릴 수 있는 장소에서 지친 오늘을 달래 보는 것은 어떨까? 선명한 듯 점점 흐릿해져만 가는 기억을 다시금 뚜렷하게 만들어줄 추억 여행 속에서 새로운 오늘을 기록해보자"
CNTS_200000000011554,고포잇다이브센터,제주특별자치도 서귀포시 강정동 2628-1,33.2347181,126.4890963,"체험관광,액티비티,체험,레저/체험,waterleisure,수상레저,어트랙션,관광지","체험관광,액티비티,카드결제,현금결제,계좌이체,,",고포잇다이브센터는 PADI 협회를 기반으로 체계적인 교육 시스템으로 안전과 즐거움을 추구하는 스쿠버 전문 교육센터이다.
CNTS_200000000015016,굿우드무드,제주특별자치도 제주시 조천읍 함덕리 1252-6,33.5422435,126.6648577,"함덕, 소품샵, 캔들, 디퓨저, 상점/상가, 관광기념품","함덕, 소품샵, 캔들, 디퓨저, 상점/상가, 관광기념품",제주에서 영감을 받은 인테리어 소품을 판매하는 소품샵
CNTS_200000000013393,꼭 경험해야 할 제주명품 - 제주의 7대 비경,,,,"비경,제주명품42,감귤,한라산,오름,오름투어,폭포,일몰","비경,제주명품42,감귤,한라산,오름,오름투어,폭포,일몰","제주 7대명품은 관광과 1차산업, 3차산업 등을 연계한 제주 비경과 특산물, 향토음식, 체험거리, 아름다운 도로, 아름다운 건축물 등 6개의 분야로 나뉜다. 각 분야별로 설문조사와 학계 및 전문가의 추천심의 등을 거쳐 선정한 명품들로, 제주를 찾는 사람이라면 꼭 경함해야 할 42가지의 특별함으로 기억될 것이다."
CNTS_300000000016010,오월에제주,제주특별자치도 서귀포시 대포동 1578-3,33.242974,126.4322915,"서귀포시, 대포동, 소품샵, 액세서리, 잡화, 유리공예","서귀포시, 대포동, 소품샵, 액세서리, 잡화, 유리공예",나만 알고 싶은 핸드메이드 소품숍
CNTS_300000000013785,댕냥별,제주특별자치도 서귀포시 안덕면 서광리 산 24-15 서머셋 호텔 1층 댕냥별,33.30288850000001,126.3181117,"제주, 서귀포시, 안덕면, 댕냥별","제주, 서귀포시, 안덕면, 댕냥별,공용주차장,현금결제,카드결제,화장실,무료 WIFI,흡연구역,음료대,유도 및 안내시설,경보 및 피난시설,카드결제,현금결제,카카오페이,알리페이,위챗 사용가능,영어,독일어가능 ,단독접근가능,단차없음,장애인 화장실,승강기,장애인 전용 주차장,쉬움,실내,하,체험,체험형 테마파크 ,1~2시간","아이부터 어른까지, 모두가 빠져드는 신비한 모험! 미션 임파서블! 지구별에서 위험에 처한 댕냥이를 구출하여 댕냥별로 여행을 떠나자!"
CNTS_200000000013390,꼭 경험해야 할 제주명품 - 제주의 7대 특산물,,,,"음식,제주명품42,감귤,고사리,자리돔,옥돔,갈치,말고기,돼지고기","음식,제주명품42,감귤,고사리,자리돔,옥돔,갈치,말고기,돼지고기","제주 7대명품은 관광과 1차산업, 3차산업 등을 연계한 제주 비경과 특산물, 향토음식, 체험거리, 아름다운 도로, 아름다운 건축물 등 6개의 분야로 나뉜다. 각 분야별로 설문조사와 학계 및 전문가의 추천심의 등을 거쳐 선정한 명품들로, 제주를 찾는 사람이라면 꼭 경함해야 할 42가지의 특별함으로 기억될 것이다. "
CNTS_300000000013610,스트라이크볼링센터,제주특별자치도 제주시 이도이동 1994-7,33.4922677,126.5376385,"볼링, 볼링장, 체험, 놀거리, 실내가볼만한곳","볼링, 볼링장, 체험, 놀거리, 실내가볼만한곳,공용주차장,현금결제,카드결제,화장실,음료대,카드결제,현금결제",도내 최대규모인 24개의 레인을 갖춘 제주시내 볼링장
CNTS_200000000014282,앙리젤,제주특별자치도 제주시 노형동 3784-12,33.48309800000001,126.4772312,"애견유치원,애견미용실,반려동물,반려동물동반입장,혼저옵서개,반려동물동반_기타체험","애견유치원,애견미용실,반려동물,반려동물동반입장,혼저옵서개,반려동물동반_기타체험",앙리젤은 노형에 위치한 프리미엄 펫 토탈샵이다. 다른 곳에서는 쉽게 볼 수 없는 제품부터 국내산 재료로 만든 건강한 간식까지 구매 가능하다. 
CNTS_000000000019659,골프탕탕,제주특별자치도 서귀포시 안덕면 산록남로 762번길 71,33.305763,126.38885,"골프,액티비티,친구,커플,체험,레저/체험,어트랙션","골프,액티비티,친구,커플,공용주차장,현금결제,카드결제,화장실,편의점","제주도 푸른 잔디 위에서 펼쳐지는 이색 Outdoor Activity 미니 그라운드 골프 ""골프탕탕"""
CNTS_300000000013622,"해와 바람의 정원, 해바라기 꽃길",제주특별자치도 서귀포시 표선면 표선리 40-1,33.3225098,126.8418176,"제주여행, 7월제주축제, 해바라기, 전통체험, 민화체험","제주여행, 7월제주축제, 해바라기, 전통체험, 민화체험","해바라기 꽃길 따라 걷고, 민화를 그리며 여름을 담다"
CNTS_200000000015157,카카오패밀리 로이인더정글카밀라스,제주특별자치도 제주시 구좌읍 세화리 1413-2,33.5225689,126.8574868,"구좌읍, 세화리, 초콜릿, 카카오테이스팅, 이색체험","구좌읍, 세화리, 초콜릿, 카카오테이스팅, 이색체험,실내,하,1시간 미만",유일무이한 카카오 테이스팅 체험
CNTS_300000000013412,우리의 청춘 이제부터 시작이다 - (S)ingle의 제주여행 이야기-①,,,,#액티브시니어 #힐링여행  #싱글라이프 #50대 #와인 #독채 #맛집 #명서 #웰니스체험 #해녀의부엌 #유민아르누보뮤지엄 #취다선 #다도명상 # 빛의벙커 #르쏠레이#테라피스파 #HFF #용머리해안 #포도뮤지엄 # 페를로 #무릉연화303 #환상숲곶자왈 #,#액티브시니어 #힐링여행  #싱글라이프 #50대 #와인 #독채 #맛집 #명서 #웰니스체험 #해녀의부엌 #유민아르누보뮤지엄 #취다선 #다도명상 # 빛의벙커 #르쏠레이#테라피스파 #HFF #용머리해안 #포도뮤지엄 # 페를로 #무릉연화303 #환상숲곶자왈 #,"6인 'senior’의 제주여행 이야기는 인생의 제2막을 맞이한 6명이 제주도에서 발견한 가치와 경험을 담고 있다. 혼자, 싱글친구들과의 제주 여행을 통해 보내며 인생의 새로운 도전을 해보자"
CNTS_300000000012744,튼튼동물병원,제주특별자치도 제주시 이도이동 1987-14,33.4905694,126.538026,"반려동물병원,반려동물,반려동물동반입장,혼저옵서개,반려동물동반_기타체험","반려동물병원,반려동물,반려동물동반입장,혼저옵서개,반려동물동반_기타체험,공용주차장,화장실,무료 WIFI,유도 및 안내시설,경보 및 피난시설",튼튼동물병원은 제주 이도2동에 위치한 병원이다.
CNTS_000000000018757,한라승마장,제주특별자치도 서귀포시 안덕면 동광리 산 32-2,33.323906,126.35258,"승마,액티비티,친구,커플,가을,체험,레저/체험,어트랙션","승마,액티비티,친구,커플,가을,공용주차장,현금결제,카드결제,화장실,유도 및 안내시설,경보 및 피난시설,아주 어려움",전통이 깊은 승마장
CNTS_200000000010801,질그랭이센터,제주특별자치도 제주시 구좌읍 세화리 3641-10,33.48959660000001,126.8316644,"겨울,체험,마을관광,어트랙션","겨울,체험,마을관광,어트랙션","구좌읍 세화리 마을주민 477명이 모여 만든 세화마을협동조합이 멋진 풍광의 세화리 바닷가에 질그랭이센터를 오픈했다. 지상 4층 규모로 건축된 질그랭이센터는 1층은 세화리사무소가 업무를 보는 공간과 여행자센터가 있고, 2층에는 카페와 지구별가게, 3층은 공유오피공간과 세미나실이 있어 대관하고 있으며 4층은 세화밖거리(숙박시설)를 갖추고 있다."
CNTS_300000000013441,제주올레이바이크,제주특별자치도 서귀포시 성산읍 성산리 392 상가동 93호,33.4604576,126.9296608,"커플,혼자,친구,액티비티,사계절,청년,전기자전거,환상자전거길","커플,혼자,친구,액티비티,사계절,청년,전기자전거,환상자전거길,공용주차장,현금결제,카드결제,화장실,무료 WIFI,흡연구역,경보 및 피난시설,카드결제,현금결제,계좌이체 및 네이버페이,영어,중국어,외국인 고객 각종 문자 서비스,단독접근가능,단차없음,청각장애인 접근성,시각장애인 접근성,저상버스 접근 가능,장애인 화장실,승강기,장애인 전용 주차장,쉬움,실외,하,체험,친환경 전기자전거를 통한 제주도의 환상의 자전거길체험과 숙박을 연결한 상품을 협업을 통한 레포츠관광상품을 발전하는 목표를 하고있음,1~2시간","제주올레이바이크는 전기자전거 대여(임대) 사업이며, 제주도 환상의 자전거길 체험 및 성산일출봉 감성투어 전기자전거 가이드 진행 "
CNTS_200000000013566,제주펫,제주특별자치도 서귀포시 남원읍 신흥리 1759-3,33.3204815,126.7454994,"카페,음식,관광지,무장애관광,반려동물,반려동물동반입장,혼저옵서개,반려동물동반_기타체험","카페,음식,관광지,무장애관광,반려동물,반려동물동반입장,혼저옵서개,반려동물동반_기타체험,공용주차장,화장실,무료 WIFI,카드결제,현금결제,탐나는전, 제로페이,단독접근가능,저상버스 접근 가능,장애인 화장실,쉬움,실내+실외,하,애견동반시설,1~2시간",반려인과 반려동물이 함께 행복을 꿈꾸는 곳
CNTS_200000000007217,윌로우씨  제주캔들공방 ,제주특별자치도 제주시 일도1동 1148-2 동문시장(주) 2층 윌로우씨 제주 캔들공방,33.555804,126.79575,"캔들,기념품,쇼핑,관광기념품,상점/상가","캔들,기념품,공용주차장,현금결제,카드결제,화장실,무료 WIFI,카드결제,현금결제,무통장입금, 카카오톡 QR코드 진행중,영어,,아주 어려움,기념품/소품,,가능","제주스러운 기념품으로 캔들,방향제를 판매하는 곳이다."
CONT_000000000501098,펜션연리,제주특별자치도 서귀포시 하예동 463-4,33.2404221,126.3860267,"휴식,펜션,휴양펜션,바비큐,해수욕장,공공와이파이존,풀빌라,단체여행객,가족,수영장,조식 포함,교통,체험,해변","휴식,펜션,휴양펜션,바비큐,해수욕장,공공와이파이존,풀빌라,단체여행객,가족,수영장,조식 포함,교통,체험,해변,공용주차장,현금결제,카드결제,화장실,무료 WIFI,흡연구역,편의점,유도 및 안내시설,경보 및 피난시설,아주 어려움",서귀포 중문에 전망 좋은 곳에 위치한 아름다운 펜션
CNTS_300000000013764,하이어스 제주,제주특별자치도 제주시 도남동 84-6,33.4952176,126.5281538,"원데이클래스, 공방, 체험, 이색체험, 제주이색코스","원데이클래스, 공방, 체험, 이색체험, 제주이색코스,하,1~2시간",특별한 추억과 실용적인 작품을 남기는 제주 공방
CNTS_300000000013690,이안도자공방,제주특별자치도 제주시 조천읍 와산리 1093-2,33.4888943,126.6786433,"도자기체험, 제주도자기, 감성체험, 제주감성, 원데이클래스, 이색데이트 ","도자기체험, 제주도자기, 감성체험, 제주감성, 원데이클래스, 이색데이트 ,현금결제,카드결제,카드결제,현금결제,실내",흙을 빚으며 힐링할 수 있는 도자공방
CNTS_000000000022129,"무더운 더위도 한 번에 날려줄 <제주, 썸머 익사이팅 체험>",,0.0,0.0,"체험,레포츠,해수욕장,오름,해변,액티비티,친구,커플,맑음,여름","체험,레포츠,해수욕장,오름,해변,액티비티,친구,커플,맑음,여름",온도는 날이 갈수록 높아지고 걷기만 해도 땀이 흐르는 7~8월.‘피할 수 없다면 즐겨라’라는 말처럼 한여름의 더위도 무색하게 해줄 익사이팅 체험을 찾아 떠나보는 것은 어떨까? 더위에 즐겨야 더욱 신이 나고 흥미로워지는 여름만의 행복을 찾아 떠나보자.
CONT_000000000500934,셋째날,제주특별자치도 서귀포시 상효동 549-2,33.3306923,126.5673572,"펜션,휴양펜션,민박,공공와이파이존,단체여행객,해수욕장,체험,온돌방,자연경관,해변,바비큐","펜션,휴양펜션,민박,공공와이파이존,단체여행객,해수욕장,체험,온돌방,자연경관,해변,바비큐,공용주차장,현금결제,카드결제,화장실,무료 WIFI,흡연구역,음료대,경보 및 피난시설,아주 어려움","서귀포에 한라산과 섶섭 바다가 시원하게 펼쳐 보이고,감귤밭이 딸려 있는 오픈2년된 신축펜션"
CNTS_200000000009434,"아이와 함께 놀멍, 배우멍! <아이 눈높이 배움터>",,,,"부모,아이,사계절,교육,배움터,과학,과학체험,4.3,역사,도서관,독서,교통,교통안전,박물관,체험","부모,아이,사계절,교육,배움터,과학,과학체험,4.3,역사,도서관,독서,교통,교통안전,박물관,체험","아이와 떠나는 여행은 항상 고민되게 마련이다. 어디를 가더라도, 무엇을 보더라도 하나라도 더 알려주고 싶은 것이 부모의 마음이기 때문이다. 제주도를 여행할 때는 이런 고민은 하지 않아도 된다. 아이들이 즐기면서 배울 수 있는 눈높이 배움터가 많아 여행을 하면서도 유익한 시간을 보낼 수 있다. 역사와 과학 탐구, 교통 안전체험 등 분야도 다양해 아이의 연령대나 관심 분야에 맞춰 가면 좋다. 대부분 실내 공간이라 비가 오거나 날씨가 궂는 날도 문제없다. "
CNTS_300000000013789,"여행이 달라지는 순간, 나우다 NOWDA <내 손 안의 관광증으로 완성하는 제주여행>",,,,"제주여행, 나우다, NOWDAI, 제주관광, 지속가능, 할인혜택, 제주애월, 제주맛집, 디지털관광, 제주도민, 애월코스, 관광증, 디지털관광증, 웃뜨리, 소소한담, 면공장, 아이바가든, 토토아뜰리에, 소품샵, 맛집, 베이커리카페, 전시","제주여행, 나우다, NOWDAI, 제주관광, 지속가능, 할인혜택, 제주애월, 제주맛집, 디지털관광, 제주도민, 애월코스, 관광증, 디지털관광증, 웃뜨리, 소소한담, 면공장, 아이바가든, 토토아뜰리에, 소품샵, 맛집, 베이커리카페, 전시","제주여행을 보다 실속 있게 즐기고 싶다면 디지털 관광증 ‘나우다 NOWDA’를 활용해 보자. 식사, 카페, 전시, 체험, 쇼핑 등 다양한 분야에서 풍성한 할인 혜택을 제공하는 ‘나우다 NOWDA’와 함께라면 제주여행이 훨씬 쉽고 재미있어진다. 오늘은 제주의 서쪽, 애월에서 ‘나우다 NOWDA’를 활용해 알차게 하루를 보낼 수 있는 코스를 소개한다."
CNTS_000000000018686,하늘조각휴양펜션,제주특별자치도 서귀포시 안덕면 사계리 2880-1,33.235546,126.2959547,"펜션,숙소,휴양펜션,바비큐,공공와이파이존,가족,온돌방,정자,체험,마을산책,해변,해수욕장,수상레저,자연경관","펜션,숙소,휴양펜션,바비큐,공공와이파이존,가족,온돌방,정자,체험,마을산책,해변,해수욕장,수상레저,자연경관,공용주차장,현금결제,카드결제,화장실,무료 WIFI,유도 및 안내시설,경보 및 피난시설,아주 어려움","자연, 조형미가 함께하는 편안함과 휴식, 그리고 즐거움을 위한 모든 것이 마련된 곳입니다. 그 어디에서도 없었던 특별한 시간 하늘정원에서 경험해 보시기 바랍니다."
CNTS_200000000010335,물뫼힐링팜,제주특별자치도 제주시 애월읍 수산리 357-1,33.4642262,126.3966261,"수산리,자연경관,체험,마을관광,웰니스,어트랙션,러닝홀리데이인제주","수산리,자연경관,체험,마을관광,웰니스,어트랙션,러닝홀리데이인제주,3시간 이상","물뫼힐링팜은 제주시 애월읍 수산리에 위치하며, 지역명인 수산(물 수, 뫼 산)에서 붙여진 명칭이다."
CNTS_300000000013861,수퍼플라워 제주,제주특별자치도 제주시 구좌읍 동복리 719-1 지하 1층,33.5535978,126.7155939,"구좌, 동복, 전시, 카페, 오션뷰, 포토존, 디저트, 꽃, 미디어아트","구좌, 동복, 전시, 카페, 오션뷰, 포토존, 디저트, 꽃, 미디어아트,카드결제,화장실,카드결제,,,실내+실외,하,체험,공연/전시,카페&소품샵,1시간 미만",‘무한한 꽃의 세계’를 테마로 플라워 디저트와 특별한 꽃의 향연을 오감으로 경험할 수 있는 몰입형 공간입니다.
CNTS_300000000015893,OK승마장,제주특별자치도 서귀포시 표선면 성읍리 2422,33.4027948,126.7831674,"서귀포, 표선, 성읍리, 승마, 이색체험","서귀포, 표선, 성읍리, 승마, 이색체험,실외,중,1시간 미만",푸른 초원을 누비며 즐기는 승마체험
CNTS_200000000007492,미요캔들,제주특별자치도 제주시 이도2동 2036-1,33.4888785,126.5342351,"친구,커플,체험관광,원데이클래스,소이캔들,디퓨저,향수,티라이트,체험,어트랙션","친구,커플,체험관광,원데이클래스,소이캔들,디퓨저,향수,티라이트,현금결제,카드결제,화장실,카드결제,현금결제,실내,체험,캔들만들기 원데이클래스,2~3시간","소이캔들, 디퓨저, 향수, 티라이트 등의 원데이클래스를 진행하며 이론교육과 함께 체험이 가능한 미요캔들"
CNTS_300000000012945,곶밭마켓&스튜디오,제주특별자치도 서귀포시 상예동 3713-1 적벽돌 2층 건물,33.2646707,126.3785282,"양조클래스, 기념품, 전통주","양조클래스, 기념품, 전통주,공용주차장,현금결제,카드결제,화장실,무료 WIFI,음료대,,영어,,단독접근가능,단차없음,쉬움,",제주 및 전국의 다양한 전통주 판매 및 체험 클래스가 가능한 곳
CNTS_300000000015859,비고르서프,제주특별자치도 서귀포시 안덕면 사계리 2294-20,33.2258399,126.2998288,"서귀포, 안덕면, 사계리, 서핑, 이색체험","서귀포, 안덕면, 사계리, 서핑, 이색체험,실외,중,3시간 이상",한적한 사계리 바다에서 만끽하는 서핑
CNTS_000000000022597,핫플게스트하우스,제주특별자치도 서귀포시 성산읍 성산리 264,33.466026,126.93286,"게스트하우스,숙소,바비큐,조식 포함,교통,공공와이파이존,해수욕장,수상레저,온돌방,체험,독채","게스트하우스,숙소,바비큐,조식 포함,교통,공공와이파이존,해수욕장,수상레저,온돌방,체험,독채",즐거운 설레임이 있는 곳
CNTS_200000000015188,에코승마아카데미,제주특별자치도 제주시 조천읍 교래리 39-3,33.4180631,126.6534847,"조천, 교래리, 승마, 이색체험","조천, 교래리, 승마, 이색체험,실외,중,1시간 미만",우거진 숲속에서 즐기는 승마 체험
CNTS_300000000012713,뒹굴개,제주특별자치도 제주시 연동 292-10,33.489578,126.4944603,"반려견카페,애견유치원,반려동물,반려동물동반입장,혼저옵서개,반려동물동반_기타체험","반려견카페,애견유치원,반려동물,반려동물동반입장,혼저옵서개,반려동물동반_기타체험,화장실,무료 WIFI,유도 및 안내시설",뒹굴개는 반려견들이 편안하게 뒹굴 수 있는 공간을 의미한다.
CNTS_300000000015996,혜리스마스,제주특별자치도 제주시 구좌읍 세화리 1467,33.5232074,126.8571133,"구좌읍, 세화리, 소품샵, 핸드메이드, 잡화, 레진공예","구좌읍, 세화리, 소품샵, 핸드메이드, 잡화, 레진공예",제주 바다를 오롯이 담은 세화 소품숍
CNTS_200000000010798,휘닉스 르쏠레이테라피,제주특별자치도 서귀포시 성산읍 고성리 127-2,33.4306514,126.9269847,"스파,체험,호텔,어트랙션","스파,체험,호텔,어트랙션","스파, 커플룸, 프라이빗룸으로 구성된 르쏠레이테라피센터는 성산 휘닉스호텔앤리조트 내에 위치하고, 호텔 스파 중 유일하게 프랑스 ‘달팡’을 경험할 수 있는 곳이다. 호텔 테라피보다 저렴한 가격으로 호텔만큼의 만족을 얻을 수 있는 곳이 휘닉스 르쏠레이테라피라고 할 수 있다. 우선 르쏠레이테라피가 가장 자랑하는 건 전문교육을 이수한 테라피스트들에게 체계적인 케어서비스를 받을 수 있다는 점과 제주에서는 유일하게 프랑스 브랜드 달팡(Darphin) 제품을 사용하고 있다는 것."
CNTS_000000000019666,중문햇빛펜션,제주특별자치도 서귀포시 안덕면 창천리 39-1,33.2696174,126.3699416,"휴식,숙소,휴양펜션,펜션,중문관광단지,독채,정원,바비큐,주방기구,마을산책,체험","휴식,숙소,휴양펜션,펜션,중문관광단지,독채,정원,바비큐,주방기구,마을산책,체험,공용주차장,현금결제,카드결제,화장실,무료 WIFI,흡연구역,음료대,유도 및 안내시설,경보 및 피난시설,아주 어려움",각각의 동으로 구성돼 독립적으로 사용할 수 있는 숙소
CONT_000000000500008,해피맘하우스,제주특별자치도 제주시 애월읍 고내리 448-2,33.4488627,126.3042586,"체험관광,비,실내,실내관광지,어트랙션,무장애관광","체험관광, 비, 실내 ,현금결제,카드결제,화장실,무료 WIFI,음료대,경보 및 피난시설,단차없음,아주 어려움",제주 인형만들기 체험장
CNTS_200000000007918,손방둥이 ,제주특별자치도 제주시 노형동 1553 101호 손방둥이 ,33.475807,126.4778081,"가죽공방,핸드메이드,체험관광,체험,어트랙션","가죽공방,핸드메이드,체험관광,체험,어트랙션,무료 WIFI,공용주차장","가죽공예를 위한 오픈공간
"
CNTS_300000000013661,"제주의 여름, 풋귤과 함께 건강을 담다",,,,"풋귤, 체험, 힐링","풋귤, 체험, 힐링","여름의 제주, 그 생기로운 풍경 속에서 우리는 흔히 감귤의 고장이라는 이미지를 떠올린다. 하지만 이 계절에만 만날 수 있는 더욱 특별한 존재가 있으니, 바로 ‘풋귤’이다.
풋귤은 감귤이 완전히 익기 전, 8월 1일에서 9월 15일 사이 짧은 기간 동안 조기 수확한 노지감귤로, 단순히 덜 익은 감귤이 아니라 기능성을 고려해 특별히 재배되고 관리된 기능성 농산물이다.
청귤과 외형은 비슷하지만, 둘은 본질적으로 다르다. 청귤이 주로 제주의 재래 품종을 말한다면, 풋귤은 수확 시기와 목적이 분명한 기능성 중심의 품종이다.
풋귤은 구연산, 플라보노이드, 나리루틴, 헤스페리딘 등의 성분이 완숙 감귤보다 2배 이상 함유되어 있어 항산화, 항염, 피로회복, 간 기능 개선 등 다양한 건강 기능성을 가진다.
이처럼 기능성과 차별성이 분명한 풋귤을 가장 생생하게 만나는 방법은 따로 있다. 바로 직접 풋귤을 수확하고, 내 손으로 풋귤청을 담가보는 체험형 프로그램이다.
단순한 관광을 넘어, 제주의 농업과 건강한 식문화를 체험할 수 있는 특별한 기회가 지금 이 계절 제주에서 열리고 있다."
CNTS_200000000007494,배움이 있는 가치 있는 하루 <제주 원데이클래스>,,,,"친구,혼자,체험관광,원데이클래스,마그넷,캔들홀더,모빌,프랑스자수,캔들,유리공예","친구,혼자,체험관광,원데이클래스,마그넷,캔들홀더,모빌,프랑스자수,캔들,유리공예","선선한 가을바람은 무언가를 시작하기에 더없이 좋은 에너지를 가지고 온다. 반복되는 일상 속 지루함을 느끼고 있다면, 평소에 배워보고 싶었던 것을 찾아 떠나보는 것은 어떨까. 평범한 하루를 특별하게 만들어 줄 원데이클래스를 통해 자신이 좋아하고 잘하는 것을 찾아보자."
CNTS_200000000007535,감귤상웨빵 체험,제주특별자치도 서귀포시 남원읍 하례리 677,33.3420367,126.5884214,"친구,커플,체험관광,감귤,감귤상웨빵,제주 전통 빵,실내관광지,체험,어트랙션","친구,커플,체험관광,감귤,감귤상웨빵,제주 전통 빵,공용주차장,화장실,실내,하,체험,감귤상웨빵 만들기,1시간 미만",감귤 꽃이 가장 먼저 피어나는 하례리 마을에서 만들어 보는 제주 전통 감귤상웨빵
CNTS_200000000008628,"미야즈클로젯 (해녀복 대여, 해녀 스냅사진 촬영)",제주특별자치도 제주시 용담삼동 526-2,33.5154157,126.5067239,"친구,커플,경관/포토,체험관광,포토스팟,쇼핑,관광기념품,체험,무장애관광","친구,커플,경관/포토,체험관광,포토스팟,쇼핑,관광기념품,체험,카드결제,현금결제,영어,중국어,단독접근가능,단차없음,저상버스 접근 가능,쉬움","제주 한복, 해녀복 대여점, 해녀스냅 사진, 한복 스냅 사진 체험 스튜디오"
CNTS_200000000007008,구석구석 제주 체험 여행 <제주산 청정 식재료로 건강한 체험 & 맛보기>,,,,"체험관광,6감만족,6차산업","체험관광,6감만족,6차산업","‘가심비’와 ‘워라밸’을 만족시킬 수 있는 체험 여행이 대세로 떠오르고 있는 요즘, 제주의 시골 마을에도 다양한 체험을 하려는 관광객들의 발걸음이 끊이지 않는다. 특히 제주의 마을 곳곳에는 착한 먹거리로 착한 음식을 만드는 가치를 실현하는 기업들이 많아 아이들과 커플, 가족들이 방문해 시간을 보내기에 좋다. 청정 제주 식재료로 만들기를 체험하고 포장해 선물로 가져갈 수도 있어 오랫동안 제주를 기억하기에 더없이 좋다. 
"
CNTS_200000000012427,알록달록 색채 가득한 제주 풍경 여행,,,,"부모,커플,혼자,친구,아이,맑음,흐림,비.눈,경관/포토,휴식/힐링,테마공원,체험관광,드라이브,봄,겨울,가을,여름,일출,일몰,밤,올레,오름,해변,4.3,실내,사계절,청년,중/장년,휴식/치유,노년,포토스팟","부모,커플,혼자,친구,아이,맑음,흐림,비.눈,경관/포토,휴식/힐링,테마공원,체험관광,드라이브,봄,겨울,가을,여름,일출,일몰,밤,올레,오름,해변,4.3,실내,사계절,청년,중/장년,휴식/치유,노년","주황색으로 탐스럽게 익은 감귤, 싱그러운 봄빛 노란색이 화사한 유채꽃, 따사로운 햇빛의 기운을 품은 갈색 억새, 차가운 겨울에 피는 붉은 동백꽃까지. 사계절마다 피어나며 제주를 아름답게 물들이는 이것들은 오늘날 제주 여행의 멋을 더하기 위해 빠질 수 없는 상징이 되었다. 그렇다면 제주 풍경의 멋을 한아름 담아가기 위해선 어디를 방문하면 좋을까? 제주에는 감귤밭도, 유채꽃밭도 많지만 그중에서도 특히 추억과 사진을 남기기 좋은 곳을 엄선하여 이곳에 소개해보고자 한다.
"
CNTS_200000000013269,가정의 달 제주여행 <아이와 함께 즐기기 좋은 이색 체험 > ,,,,"가정의 달,아이와 가기 좋은 곳,체험활동,이색체험,성수미술관제주특별점,그린비즈,컬러랩제주,어른이집","가정의 달, 5월제주여행, 아이와 함께하는 제주, 아이와 가기 좋은 곳, 체험활동, 이색체험, 성수미술관제주특별점, 그린비즈, 컬러랩제주, 어른이집","아이와 함께 나들이 가기 좋은 계절, 평소에 손쉽게 접해보지 못한 이색 체험을 경험해 보는 것은 어떨까? 미술 프로그램부터 꿀벌 체험, 자연이 주는 색감을 자연스럽게 익힐 수 있는 다양한 체험 프로그램이 기다리고 있다. 아이들의 정서 발달은 물론 재미와 흥미까지 즐기기 좋은 이색 체험 공간을 소개한다. 이번 가정의 달에는 알찬 하루를 보낼 수 있는 곳으로 떠나보자."
CNTS_200000000014306,그루밍제주,제주특별자치도 서귀포시 회수동 556,33.2524207,126.4428121,"애견미용실,애견호텔,애견유치원,반려동물,반려동물동반입장,혼저옵서개,반려동물동반_기타체험","애견미용실,애견호텔,애견유치원,반려동물,반려동물동반입장,혼저옵서개,반려동물동반_기타체험,공용주차장,화장실,무료 WIFI",그루밍제주는 야외에서 일광욕하며 친구들과 뛰어놀 수 있는 공간이다.
CNTS_200000000010799,제주여가마을,제주특별자치도 제주시 조천읍 와흘리 1480-2,33.504557,126.6357654,"겨울,마을산책,마을관광,체험,어트랙션",겨울,"제주시 동쪽 조천읍 와흘에 위치한 제주여가마을은 자신의 여가 분석과 유형별 체험 프로그램을 통해 자신만의 쉬는 법과 노는 법을 터득해 가는 흥미로운 체험마을이다. 제주여가마을 본부가 있는 농촌마을 ‘와흘리’는 세계중요농업유산인 제주밭담의 전통성과 다양성을 잘 보존하여, 제주시가 추진하는 전통밭담을 활용한 힐링 제주 플랫폼 구축사업의 거점마을이기도 하다."
CNTS_200000000012867,한라산이 빚은 절경 <5.16도로 여행지>,,,,"부모,커플,혼자,친구,아이,휴식/힐링,테마공원,체험관광,드라이브,사계절,휴식/치유","부모,커플,혼자,친구,아이,휴식/힐링,테마공원,체험관광,드라이브,사계절,휴식/치유","한라산을 가로지르며 제주시와 서귀포시를 잇는 516도로는 굽이지고 습한 도로가 많아 계절별 운행이 까다로운 곳이다. 하지만 제주마방목지, 숲터널, 성판악 코스 등의 다채로운 볼거리를 품고 있어 많은 관광객이 찾는 드라이브 코스가 되었다. 한라산 중산간에 위치한 선덕사는 장엄하게 우뚝 솟아오른 미륵불과 석탑, 5.16도로의 끝자락에 위치한 상효원에서는 사계절 내내 아름드리 꽃을 피운 정원을 만나볼 수 있다."
CNTS_300000000013886,누리프렌즈카페인제주,제주특별자치도 제주시 애월읍 유수암리 965,33.42978770000001,126.4088497,"제주카페, 애월카페, 제주아이랑가볼만한곳, 제주빵지순례, 제주포토존 제주빵집, 애월빵집, 애월데이트, 도민할인, 애월맛집, 제주굿즈샵, 제주가볼만한곳, 제주핫플레이스, 애월핫플레이스, 제주캐릭터, 제주포토스팟, 캐릭터카페","제주카페, 애월카페, 제주아이랑가볼만한곳, 제주빵지순례, 제주포토존 제주빵집, 애월빵집, 애월데이트, 도민할인, 애월맛집, 제주굿즈샵, 제주가볼만한곳, 제주핫플레이스, 애월핫플레이스, 제주캐릭터, 제주포토스팟, 캐릭터카페,현금결제,카드결제,공용주차장,화장실,유도 및 안내시설,임산부 휴게시설,카드결제,현금결제","인기 캐릭터 굿즈와 포토존, 인형뽑기·가챠머신 등 체험형 콘텐츠, 전문 셰프가 매일 직접 구워내는 베이커리와 커피를 즐길 수 있는 복합문화공간"
CNTS_200000000012233,월정에비뉴,제주특별자치도 제주시 구좌읍 월정리 33-12,33.5545847,126.7982658,"휴식/힐링,액티비티,숙소,수영장,공공와이파이존,레저/체험,무장애관광","휴식/힐링,액티비티,공용주차장,현금결제,카드결제,화장실,무료 WIFI,흡연구역,유도 및 안내시설,경보 및 피난시설,카드결제,현금결제,,영어,중국어,일본어,,단독접근가능,장애인 화장실,승강기,장애인 전용 주차장,어려움,없음,동반불가능,유료제공,흡연구역제공,식음료장,세미나실,풀장,스파,연회장,인터넷,바베큐장,비즈니스시설,,유아침대,유아욕조,유아의자,탁아서비스,,없음,운행안함","에메랄드 빛깔이 아름다운 월정리 해변 앞, 오션뷰와 넓은 인피니티풀을 갖추고 있는 풀빌라와 전문 강사들로 구성된 서핑클럽, 누구나 즐길 수 있는 비치 펍과 레스토랑, 워크샵을 위한"
CNTS_200000000013647,"알고 보면 어렵지 않은 Vegan, Begin <제주 비건 여행>",,,,"제주비건여행,비건식당,비건카페,vegan,비건체험,비건","제주비건여행, 비건식당, 비건카페, vegan, 비건체험","제주 여행을 즐기는 사람들의 가장 중요한 포인트는 맛집 탐방이 아닐까. 해산물부터 육류까지 다양하고 놀라운 맛으로 가득한 제주! 하지만 최근 비건에 대한 관심도가 꾸준히 높아지며 누군가는 신념을 위해, 누군가는 어쩔 수 없는 체질상의 이유로 비건을 시작한다고 한다. 즐거운 제주 여행을 비건 때문에 고민하게 만들 수는 없는 법! 고민 없이 비건으로 맛있는 음식부터 디저트를 즐기는 방법, 지금 소개하는 비건 로드를 따라가 보자."
CNTS_200000000015074,테리베리스,제주특별자치도 제주시 애월읍 고내리 473,33.4685815,126.34033,"애월, 소품샵, 뜨개샵, 잡화, 핸드메이드소품,테리베리스, 제주소품샵, 애월소품샵, 제주선물가게, 애월선물가게","애월, 소품샵, 뜨개샵, 잡화, 핸드메이드소품,테리베리스, 제주소품샵, 애월소품샵, 제주선물가게, 애월선물가게",손수 뜨개질한 소품들이 있는 가게
CNTS_000000000022118,중문미로공원,제주특별자치도 서귀포시 상예동 3600,33.2631,126.38159,"테마공원,아이,가을,체험,어린이,어트랙션","테마공원,아이,가을,체험,어린이,어트랙션,공용주차장,화장실",중문미로파크는 중문에 위치한 미로테마파크입니다.
CNTS_200000000008040,수풀,제주특별자치도 제주시 한림읍 대림리 1803-6 2층,33.4178654,126.2667152,"쇼핑,소품,핸드메이드,관광기념품,상점/상가","쇼핑,소품,핸드메이드","핸드메이드 소품들을 판매하고 있는 아기자기한 소품 숍
"
CNTS_200000000015182,런닝맨,제주특별자치도 서귀포시 색달동 2629,33.254854,126.4092614,"서귀포, 중문, 이색체험, 런닝맨","서귀포, 중문, 이색체험, 런닝맨,실내+실외,하,1~2시간",인기 예능프로그램의 주인공이 되는 체험
CNTS_200000000011997,"섬 속의 섬, 희귀 생물들의 터 <생물권보전지역>",,,,"커플,혼자,친구,맑음,흐림,휴식/힐링,체험관광,액티비티,봄,가을,여름,일출,일몰,밤,올레,오름,해변,4.3,실내,청년,휴식/치유,유네스코,자연경관,도보여행,도보","커플,혼자,친구,맑음,흐림,휴식/힐링,체험관광,액티비티,봄,가을,여름,일출,일몰,밤,올레,오름,해변,4.3,실내,청년,휴식/치유","제주 서귀포 최남단,  인적이 드문 세 개의 섬이 존재한다. 이번에는 천연 생태계가 잘 보존되어 있어 학술적·환경적 가치가 높은 곳을 소개해보고자 한다. 어떠한 비경이 숨겨져 있는지 함께 살펴보자!"
CNTS_000000000019328,글라라의집,제주특별자치도 서귀포시 안덕면 사계리 2019-6,33.232094,126.3087,"숙소,휴양펜션,펜션,독채,정원,자연경관,올레길,조식 포함,농어촌민박","숙소,휴양펜션,펜션,독채,정원,자연경관,올레길,조식 포함,농어촌민박,공용주차장,현금결제,카드결제,화장실,무료 WIFI,흡연구역,편의점,음료대,유도 및 안내시설,경보 및 피난시설,아주 어려움,지오브랜드",산방산과 용머리해안 근처 2015년 최우수 지오하우스(지질체험숙소)
CNTS_200000000008812,제주공항 게스트하우스 예스준,제주특별자치도 제주시 도두일동 1727-5 ,33.508552,126.47080349999999,"혼자,커플,친구,청년,휴식/치유,게스트하우스,숙소,조식 포함,체험,해수욕장,수상레저","혼자,커플,친구,청년,휴식/치유,게스트하우스,숙소,조식 포함,체험,해수욕장,수상레저,공용주차장,현금결제,카드결제,화장실,무료 WIFI,흡연구역,편의점,음료대,유도 및 안내시설,경보 및 피난시설,카드결제,현금결제,계좌이체,영어,,어려움,없음,동반불가능,무료제공,전체금연,세탁서비스,인터넷,레스토랑, 카페, 펍, 제주감성소품샵,,없음,운행안함",제주공항 5분 도두 무지개 해안도로에 위치한 예스준 게스트하우스. 바다뷰 객실과 바다뷰 루프탑이 있어 제주힐링여행에 딱 좋은 게스트하우스. 
CNTS_200000000015128,소소한 상상점,제주특별자치도 제주시 구좌읍 평대리 73,33.5270006,126.8509414,"구좌읍, 평대리, 소품샵, 핸드메이드, 잡화, 액세서리","구좌읍, 평대리, 소품샵, 핸드메이드, 잡화, 액세서리",직접 그려 더욱 개성 있는 세화소품숍
CNTS_200000000007941,제주다,제주특별자치도 제주시 애월읍 납읍리 1417-4,33.4310983,126.3293946,"체험관광,아이,차,어린이,어트랙션","체험관광,아이,차",제주조릿대로 만드는 향긋한 차 체험을 할 수 있는 곳
CNTS_200000000008894,바구스서핑스쿨,제주특별자치도 제주시 애월읍 곽지리 1565-47,33.4515161,126.3070429,"서핑,서핑스쿨,체험,스포츠,해양스포츠,수상레저,어트랙션","서핑,서핑스쿨,체험,스포츠,해양스포츠,수상레저,어트랙션,공용주차장,현금결제,카드결제,화장실,무료 WIFI,카드결제,현금결제,,영어,,실외,중,해양스포츠,서핑,2~3시간",에메랄드빛 예쁜 바다로 유명한 애월 곽지해수욕장에서 배우는 서핑
CONT_000000000500391,스프링데일CC,제주특별자치도 서귀포시 남원읍 서성로 459번지,33.32895,126.64069,"골프,액티비티,체험,레저/체험,어트랙션,무장애관광","골프,액티비티,공용주차장,현금결제,카드결제,화장실,무료 WIFI,흡연구역,편의점,음료대,유도 및 안내시설,경보 및 피난시설,단독접근가능,단차없음,저상버스 접근 가능,장애인 전용 주차장,어려움","해발400고지에 위치, 여름에는 시원하고 겨울에는 따듯한 기온의 골프장"
CNTS_200000000009505,"육(陸), 해(海), 공(空)을 누비는 짜릿한 즐거움 <제주 액티비티>",,,,"액티비티,체험,카트,ATV,짚라인,실내액티비티,보트체험,카약","액티비티,체험,카트,ATV,짚라인,실내액티비티,보트체험,카약","따사로운 햇살이 내리쬐는 가을은 액비티비를 즐기기 좋은 계절이다. 이 계절이 다 가기 전에 땅과 바다, 하늘을 누비는 짜릿함에 빠져보자. 스피드와 거친 도전을 즐긴다면 카트나 ATV를, 고공 낙하와 같은 아찔한 스릴감을 좋아한다면 짚라인이 제격이다. 모험심이 많은 여행자에겐 우도 보트 동굴탐험을 추천한다. 투명 카약을 타고 홀로 또는 둘이 유유히 바다를 누비고 다녀도 좋다. 날씨가 궂은 날도 문제없다. 실내에서도 땀이 날 만큼 역동적인 신나는 액티비티까지 알뜰하게 모았다."
CNTS_000000000022736,제주오렌지,제주특별자치도 서귀포시 남원읍 서성로 684-5,33.32588,126.66985,"체험관광,아이,실내관광지,체험,어린이,어트랙션","체험관광,아이,실내관광지,체험,어린이,어트랙션",초콜릿공장 견학과 초콜릿만들기 체험이 가능한 제주오렌지
CNTS_200000000010796,롯데호텔 브이스파,제주특별자치도 서귀포시 색달동 2812-4,33.2484577,126.4105487,"겨울,스파,체험,호텔,어트랙션","겨울, 스파,실내","서귀포시 중문관광단지의 롯데호텔제주는 프리미엄급으로 잘 알려진 휴양시설. 이 곳 별관 1층에 위치한 브이스파는 1905년부터 명성을 이어온 스위스 프리미엄 안티에이징 브랜드 ‘발몽(Valmont)’과 딸라소 테라피의 리더, 프랑스 No.1 해양성 코스메틱 브랜드 ‘딸고(Thalgo)’를 전문으로 사용하는 고품격 스파라고 할 수 있다. 전문교육을 이수한 테라피스트의 섬세한 손길로 진행되는 다양한 프로그램과 고객 한 분만을 위한 프라이빗 서비스는 여행이나 과중한 피로에 지친 몸과 마음의 균형을 찾게 해준다."
CNTS_200000000010733,파도봐펜션,제주특별자치도 서귀포시 남원읍 남원리 93-11,33.2783351,126.720218,"남원,펜션,오션뷰,숙소,휴양펜션,온돌방,바비큐,체험,무장애관광","남원, 펜션, 오션뷰,공용주차장,현금결제,카드결제,화장실,무료 WIFI,흡연구역,유도 및 안내시설,엘리베이터,카드결제,현금결제,,,승강기,쉬움,없음,동반가능,없음,전체금연,세탁서비스,인터넷,바베큐장,퍼터연습장,,없음,운행안함",전객실 오션뷰~아름다운 풍경과 낭만이 있는 펜션..서귀포 파도봐펜션 입니다.
CNTS_200000000008851,아일랜드에프,"제주특별자치도 서귀포시 성산읍 성산리 347-9, 2층",33.4721117,126.9331983,"선상낚시,낚시체험,선상리조트,체험,어트랙션","선상낚시,낚시체험,선상리조트,체험,어트랙션,공용주차장,현금결제,카드결제,화장실,무료 WIFI,흡연구역,음료대,유도 및 안내시설,경보 및 피난시설,카드결제,현금결제,계좌이체,영어,,아주 어려움,실내+실외,하,해양스포츠,체험,숙박,낚시,식음,3시간 이상",우도와 성산일출봉 사이 제주바다에 떠있는 선상테마파크
CNTS_300000000012745,한라동물종합병원,제주특별자치도 제주시 일도이동 321-10,33.5108854,126.5390598,"반려동물병원,반려동물,반려동물동반입장,혼저옵서개,반려동물동반_기타체험","반려동물병원,반려동물,반려동물동반입장,혼저옵서개,반려동물동반_기타체험,화장실,무료 WIFI,유도 및 안내시설",한라동물종합병원은 일도2동에 위치하였다.
CNTS_200000000008512,오후여섯시펜션,제주특별자치도 제주시 애월읍 곽지리 1622-41,33.4521596,126.3077543,"숙소,휴양펜션,펜션,해수욕장,온돌방,공공와이파이존,체험,바비큐","공용주차장,현금결제,카드결제,화장실,무료 WIFI,흡연구역,유도 및 안내시설,경보 및 피난시설,카드결제,현금결제,,,없음,동반불가능,없음,전체금연,식음료장,인터넷,바베큐장,1층 카페/ 옥상전망대/야외바베큐장,,없음,운행안함",제주 애월 곽지해수욕장 인근에 위치한 펜션. 
CNTS_300000000013582,제이제이 필라테스요가,제주특별자치도 제주시 한림읍 협재리 2164-1,33.386623,126.2471087,"요가, 원데이클래스, 체험, 필라테스, 요가원, 바다요가, 야외요가","요가, 원데이클래스, 체험, 필라테스, 요가원, 바다요가, 야외요가,현금결제,카드결제,카드결제,현금결제",실내 및 야외 바다 요가를 체험할 수 있는 요가원
CNTS_000000000021802,지질마을에서 체험하는 진짜 제주의 삶 <지오하우스>,,0.0,0.0,"지질트레일,실내,체험관광,사계절,언택트,유네스코","지질트레일,실내,체험관광,사계절,언택트,유네스코","세계지질공원인 제주도의 지질마을 지오하우스(Geo-House)에서는 지질자원이나 문화 이야기를 모티브로 한 체험을 할 수 있다. 현재 성산일출봉이 있는 성산・오조지역에 1곳, 만장굴이 있는 김녕・월정지역에 5곳, 산방산・용머리해안 지역에 5곳 이렇게 총 11호점이 운영 중이다."
CNTS_200000000011135,[같이가치 제주여행] 11. 놀멍쉬멍 즐기는 제주의 피톤치드,,,,"부모,커플,친구,경관/포토,휴식/힐링,테마공원,체험관광,드라이브,사계절,청년,중/장년,노년,포토스팟,같이가치,무장애여행","부모,커플,친구,경관/포토,휴식/힐링,테마공원,체험관광,드라이브,사계절,청년,중/장년,노년","피톤치드는 심리적인 안정감과 심폐 기능의 강화, 피부소독 등 여러 약리 작용을 하는것으로 알려져 있다. 산중턱에서 피톤치드는 보다 효과적으로 발산하는데, 한라산으로 이어진 제주의 중산간은 피톤치드를 느낄 수 있는 최적의 장소다. 높은 산, 거친 숲이 아니라도 제주의 중산간에서 쾌적한 산림욕을 즐길 수  있다. 잘 다듬어진 길로 편하게 이동하며 제주의 초록을 느껴볼 수 있는 여행 코스로 “놀멍쉬멍 즐기는 제주의 피톤치드” 코스를 권합니다. 잠시 쉬어가도 좋다. 다만 제주의 자연을 듬뿍 담아가시길 바란다."
CNTS_200000000015037,루인홈,제주특별자치도 제주시 조천읍 대흘리 1104-39,33.4891339,126.6677203,"조천, 대흘리, 소품샵, 캔들","조천, 대흘리, 소품샵, 캔들",조용한 중산간 마을에서 부부가 함께 꾸려가는 핸드메이드 소품가게
CNTS_200000000015152,하례점빵,제주특별자치도 서귀포시 남원읍 하례리 738-12,33.3252261,126.5961931,"서귀포, 남원, 상웨빵, 이색체험, 러닝홀리데이인제주","서귀포, 남원, 상웨빵, 이색체험, 러닝홀리데이인제주,실내,하,1~2시간",새콤달콤 맛 좋은 상웨빵 요리체험
CNTS_300000000015849,라이크더윈드 스튜디오,제주특별자치도 제주시 구좌읍 세화리 1465-15,33.5232671,126.8570277,"구좌읍, 세화리, 체험공방, 썬캐쳐, 스테인드글라스","구좌읍, 세화리, 체험공방, 썬캐쳐, 스테인드글라스,실내,중,1~2시간",유니크하고 예쁜 스테인드글라스 체험
CNTS_200000000008624,5월엔 제주 <어른과 아이들의 소확행 플레이스>,,,,"아이,테마공원,체험관광","아이,테마공원,체험관광","따뜻한 봄날이 본격적으로 찾아온 5월. 아이들을 데리고 갈만한 마땅한 곳을 찾지 못했다면 제주에서 즐길 수 있는 다양한 체험을 해보는 것은 어떨까. 속도감을 좋아하는 아이가 있다면 아이와 함께 레이싱을, 아이와 부모가 함께 창의력에 도전하고 싶다면 블록 쌓기를, 핑크색에 빠진 공주님을 모시고 산다면 헬로키티를 만나러 가보자. 다양한 놀이기구와 즐길 거리가 있는 신화월드와 중문단지에는 면세점이 있어 좋은 가격에 득템을 할 수 있다는 장점도 있다. 
"
CNTS_200000000009551,한라의향기,제주특별자치도 서귀포시 안덕면 상창리 840,33.2809176,126.3638977,"체험,감귤,감귤따기,자연경관,어트랙션","체험, 감귤, 감귤따기,현금결제,1시간 미만",감귤체험장
CNTS_200000000015200,산도스카발리오홀스파크,제주특별자치도 서귀포시 안덕면 광평리 268,33.3336425,126.3701635,"서귀포, 안덕면, 광평리, 승마, 마장마술, 이색체험","서귀포, 안덕면, 광평리, 승마, 마장마술, 이색체험,실외,중,1시간 미만",입문자와 숙련자 모두 즐기는 승마체험
CNTS_300000000013029,도깨비장군 활터,제주특별자치도 서귀포시 표선면 성읍리 800 ,33.3874708,126.8001924,"제주체험,활쏘기체험,국궁체험,양궁체험","제주체험,활쏘기체험,국궁체험,양궁체험,공용주차장,현금결제,카드결제,화장실,무료 WIFI,음료대,카드결제,현금결제,,영어,,단독접근가능,단차없음,장애인 화장실,쉬움,실외,중,,1시간 미만",국가공인 체육지도사 지도 하에 전통활 국궁과 올림픽 양궁 종목을 즐길 수 있는 체험장
CNTS_200000000011140,[같이가치 제주여행] 24. 아기자기 꾸며진 제주 즐기기,,,,"부모,커플,혼자,아이,친구,경관/포토,휴식/힐링,사계절,노년,청년,중/장년,포토스팟,같이가치,무장애여행","부모,커플,혼자,아이,친구,경관/포토,휴식/힐링,사계절,노년,청년,중/장년","자라나는 아이들과의 여행은 언제나 행복감을 준다. 제주도에는 그에 맞게 다양한 체험과 경험의 장을 제공해줄 수 있는 곳이 많다. 장난감과 키즈카페의 테마도 좋지만 때로는 민속촌에서의 역사 탐험과 체험, 감귤박물관에서의 감귤 따기 체험은 궁금증과 상상력을 자극하는 여행을 선사해주기에 좋은 방법이다. 또한 제주의 향기와, 맛, 파도, 풍경 그리고 역사이야기 까지 엿 볼 수 있는 본 코스는 이동에 어려움이 있는 누구나 라도 소중한 시간을 보내기에 좋을 것이다. 여행의 순간은 잠시지만 경험은 영원히 남아있는 행복한 순간이 될 수 있다.
"
CNTS_200000000007852,제주인디,제주특별자치도 서귀포시 성산읍 삼달리 1010,33.3833933,126.84245,"자연염색,천연염색,체험관광,체험,어트랙션","자연염색, 천연염색, 체험관광",일출랜드 아트센터 내에 위치한 자연염색 체험관
CNTS_200000000012455,서부두명품횟집거리,제주특별자치도 제주시 건입동 1319-31,33.5176631,126.5284004,"사계절,청년,중/장년,노년,휴식/치유,체험관광,휴식/힐링,어트랙션,관광지","사계절,청년,중/장년,노년,휴식/치유,체험관광,휴식/힐링,어트랙션,관광지","150m정도의 거리에 횟집 18곳이 밀집된 원조 횟집거리로, 사시사철 싱싱한 제주 회를 한자리에서 맛볼 수 있는 곳"
CNTS_000000000021782,퍼즐을 끼어 맞추듯 신나는 <문화 체험 여행>,,0.0,0.0,"자연,체험,동굴,지질트레일,아이,오름,체험관광,걷기/등산,경관/포토,맑음,사계절,포토스팟","자연,체험,동굴,지질트레일,아이,오름,체험관광,걷기/등산,경관/포토,맑음,사계절,포토스팟","제주만의 이국적인 풍경은 어른들의 마음을 흔들고 제주만의 신나는 볼거리는 아이들을 즐겁게 한다. 어른은 어른대로, 아이는 아이대로, 모두가 즐겁고 모두가 신나는 제주 여행. 제주레일바이크에선 오름 아래 펼쳐진 초원지대를 만날 수 있고, 만장굴에서 화산섬 제주의 신비를 만날 수 있다."
CNTS_300000000016097,사월의 꿩,제주특별자치도 제주시 구좌읍 송당리 2744-2,33.4281061,126.751044,"꿩,보양식,엿,꿩엿,단체체험,단체교육, 러닝홀리데이인제주","꿩,보양식,엿,꿩엿,단체체험,단체교육, 러닝홀리데이인제주,1시간 미만",향토음식 장인이 만드는 유일무이 제주 보양식 꿩엿
CNTS_000000000022935,백년초농장박물관,제주특별자치도 서귀포시 호근동 310-3,33.244675,126.54399,"테마공원,백년초,실내관광지,체험,문화관광,박물관,어트랙션","테마공원,백년초,실내관광지,체험,문화관광,박물관,어트랙션,공용주차장,현금결제,카드결제,화장실,무료 WIFI,쉬움","눈으로 보고, 입으로 맛 보다"
